license_number,entity_name,telephone_number,shl_endorsed,building,street,city,state,postcode,type_of_base,latitude,longitude,date,time,location
B03402,RL VIP LIMO INC,9294131346,No,41,MEDWAY AVE,CONGERS,NY,10920,LUXURY/LIMOUSINE,41.1413757,-73.935486,12/04/2023,18:00:12,"(41.1413757, -73.935486)"
B90713,"ELEGANTE SERVICES, INC.",7184927680,No,1804,RANDALL AVENUE,BRONX,NY,10473,PARATRANSIT BASE,40.816803,-73.862557,12/04/2023,18:00:12,"(40.816803, -73.862557)"
B02627,A PEGASUS LIMOUSINE CORP.,9737773007,No,176,SADDLE RIVER AVENUE  BLDG F,HACKENSACK,NJ,07606,LUXURY/LIMOUSINE,40.863348,-74.09752,12/04/2023,18:00:12,"(40.863348, -74.09752)"
B03456,3DI INC,5163250390,No,45,DOVER ST,MASSAPEQUA,NY,11758,BLACK CAR BASE,40.6769701,-73.4308555,12/04/2023,18:00:12,"(40.6769701, -73.4308555)"
B80182,EIGHT STAR INC.,3476446822,No,136-31,41 AVENUE  PH,FLUSHING,NY,11355,COMMUTER VAN AUTHORITY BASE,40.74931,-73.821321,12/04/2023,18:00:12,"(40.74931, -73.821321)"
B80145,ALEXIS VAN LINES INC,9174341614,No,3712,FLATLANDS AVENUE  2F,BROOKLYN,NY,11234,COMMUTER VAN AUTHORITY BASE,40.618436,-73.939214,12/04/2023,18:00:12,"(40.618436, -73.939214)"
B00628,"CONCORD LIMOUSINE 1, LLC",7189656150,No,712,3 AVENUE,BROOKLYN,NY,11232,BLACK CAR BASE,40.663353,-73.99894,12/04/2023,18:00:12,"(40.663353, -73.99894)"
B00227,"PARK WEST EXEC. SERVICES, INC.",2127277800,No,1200,SHAMES DRIVE  UNIT D,WESTBURY,NY,11590,LUXURY/LIMOUSINE,40.754855,-73.929205,12/04/2023,18:00:12,"(40.754855, -73.929205)"
B03416,ADF TRANSPORTATION LLC,3476636299,No,499,EAST  138 STREET,BRONX,NY,10454,BLACK CAR BASE,40.8078551,-73.9195148,12/04/2023,18:00:12,"(40.8078551, -73.9195148)"
B03160,"CURB TRANSPORTATION SERVICES,LLC",7187011317,No,11-11,34 AVENUE,LIC,NY,11106,BLACK CAR BASE,40.7648,-73.9808,12/04/2023,18:00:12,"(40.7648, -73.9808)"
B03467,SIMPLE RIDE TRANSPORTATION INC.,9172800935,No,370,EAST 149TH STREET  SUITE 2,BRONX,NY,10455,BLACK CAR BASE,40.9967453,-73.6757618,12/04/2023,18:00:12,"(40.9967453, -73.6757618)"
B02905,PUEBLA LUXURY CORP,7186335454,No,3916,9 AVENUE,BROOKLYN,NY,11232,BLACK CAR BASE,40.644255,-74.0001,12/04/2023,18:00:12,"(40.644255, -74.0001)"
B00619,"HOLA CAR SERVICE,INC.",7183646666,No,4371,3 AVENUE,BRONX,NY,10457,LIVERY BASE,40.850716,-73.894416,12/04/2023,18:00:12,"(40.850716, -73.894416)"
B00692,"CHEERS DISPATCH,INC.",7189654242,No,6202,NEW UTRECHT AVE,BROOKLYN,NY,11219,LIVERY BASE,40.667552,-73.98081,12/04/2023,18:00:12,"(40.667552, -73.98081)"
B00756,T & S HILLSIDE INC.,7186585252,No,169-08,HILLSIDE AVENUE  2ND FLR,JAMAICA,NY,11432,LIVERY BASE,40.711551,-73.79299,12/04/2023,18:00:12,"(40.711551, -73.79299)"
B02847,JOY LUXURY INC,7186846000,No,2078,CROSS BRONX EXPRESSWAY,BRONX,NY,10472,BLACK CAR BASE,40.831091,-73.85419,12/04/2023,18:00:12,"(40.831091, -73.85419)"
B03174,NEW HEAVEN LUXURY INC,2129231313,No,1059,ST NICHOLAS AVENUE,NEW YORK,NY,10032,BLACK CAR BASE,40.8366714,-73.9403354,12/04/2023,18:00:12,"(40.8366714, -73.9403354)"
B03037,RIDE SOLUTION WORLDWIDE INC,2124704505,No,5102,21ST STREET,LONGISLAND CITY,NY,11101,LUXURY/LIMOUSINE,40.7407032,-73.9499974,12/04/2023,18:00:12,"(40.7407032, -73.9499974)"
B03032,A & S LIMOUSINE SERVICE CORP,7184551900,No,712,BROADWAY  2ND FLOOR,BROOKLYN,NY,11206,BLACK CAR BASE,40.7012183,-73.9431655,12/04/2023,18:00:12,"(40.7012183, -73.9431655)"
B01381,CLASSIC CAR SERVICE CORP.,7187281200,No,38-12,ASTORIA BOULEVARD,ASTORIA,NY,11103,LIVERY BASE,40.768741,-73.911531,12/04/2023,18:00:12,"(40.768741, -73.911531)"
B02120,HARRISON GLOBAL LLC,9733760145,No,780,DOWD AVENUE,ELIZABETH,NJ,07201,LUXURY/LIMOUSINE,40.672805,-74.191579,12/04/2023,18:00:12,"(40.672805, -74.191579)"
B03392,CHURCH EXPRESS LUXURY INC,7186334477,No,99,CHURCH AVENUE,BROOKLYN,NY,11218,BLACK CAR BASE,40.6429005,-73.9796493,12/04/2023,18:00:12,"(40.6429005, -73.9796493)"
B03214,MALIBU CAR SERVICE INC.,6466714360,No,1231,LAFAYETTE AVENUE  L2,BRONX,NY,10474,BLACK CAR BASE,40.7101523,-73.7928657,12/04/2023,18:00:12,"(40.7101523, -73.7928657)"
B01282,NEW LOTS C/S INC,7182722222,No,603,NEW LOTS AVENUE,BROOKLYN,NY,11207,LIVERY BASE,40.664829,-73.886868,12/04/2023,18:00:12,"(40.664829, -73.886868)"
B02217,PCS LIMOUSINE INC.,7188219400,No,1321,W 4TH STREET,PLAINFIELD,NJ,07063,LUXURY/LIMOUSINE,40.715345,-73.90172,12/04/2023,18:00:12,"(40.715345, -73.90172)"
B03315,BRISK CAR SERVICE INC.,3478206444,No,495,CLAREMONT PARKWAY  STORE #2,BRONX,NY,10457,BLACK CAR BASE,40.8387959,-73.901869,12/04/2023,18:00:12,"(40.8387959, -73.901869)"
B03386,CHASDEI DEVORAH INC.,7182320616,No,5004,16 AVENUE,BROOKLYN,NY,11204,BLACK CAR BASE,40.6304693,-73.9864272,12/04/2023,18:00:12,"(40.6304693, -73.9864272)"
B01730,LUCKY EXPRESS CORPORATION,2122198886,No,47,LUDLOW STREET,NEW YORK,NY,10002,LIVERY BASE,40.71642,-73.99046,12/04/2023,18:00:12,"(40.71642, -73.99046)"
B03185,G&J LUXURY TRANSPORTATION INC,7189134454,No,7,SKYLINE DRIVE  SUITE 350,HAWTHORNE,NY,10532,BLACK CAR BASE,41.0904852,-73.813189,12/04/2023,18:00:12,"(41.0904852, -73.813189)"
B02823,AAA FAMILY LIMOUSINE SERVICE INC,7183170055,No,12,ELTINGVILLE BOULEVARD,STATEN ISLAND,NY,10312,LUXURY/LIMOUSINE,40.544833,-74.16503,12/04/2023,18:00:12,"(40.544833, -74.16503)"
B03394,NEW ELEGANTE CAR SERVICE INC,7184927680,No,1401,WEBSTER AVENUE,BRONX,NY,10456,BLACK CAR BASE,40.8364202,-73.9076659,12/04/2023,18:00:12,"(40.8364202, -73.9076659)"
B01215,ECUADOOR CORP,7182048412,No,44-10,30 AVENUE,ASTORIA,NY,11103,LIVERY BASE,40.762272,-73.911591,12/04/2023,18:00:12,"(40.762272, -73.911591)"
B03434,BELLA CAR SRVICE CORPORATION,5169865999,No,3418,NORTHERN BOULEVARD  SUITE 100,L.I.C.,NY,11101,BLACK CAR BASE,40.7517583,-73.929177,12/04/2023,18:00:12,"(40.7517583, -73.929177)"
B02978,ONYX 1 INC,5168844782,No,1225,FRANKLIN AVE  325,GARDEN CITY,NY,11530,BLACK CAR BASE,40.7340743,-73.6354595,12/04/2023,18:00:12,"(40.7340743, -73.6354595)"
B02249,"LA RAZA CAR SERVICE, INC.",7183971111,No,80-01,31ST AVENUE,EAST ELMHURST,NY,11370,LIVERY BASE,40.759225,-73.887802,12/04/2023,18:00:12,"(40.759225, -73.887802)"
B03062,BQN VOUCHER INC,7183285510,No,1106,GARRISON AVENUE,BRONX,NY,10474,BLACK CAR BASE,40.8196364,-73.8891842,12/04/2023,18:00:12,"(40.8196364, -73.8891842)"
B02373,QUIET SERVICES INC,7183609383,No,31-35,61 STREET,WOODSIDE,NY,11377,BLACK CAR BASE,40.76451,-73.905073,12/04/2023,18:00:12,"(40.76451, -73.905073)"
B03198,"DD&SON,LLC",9175674082,No,7,MARCUS GARVEY BLVD  STE#316,BROOKLYN,NY,11206,BLACK CAR BASE,40.6998901,-73.9410586,12/04/2023,18:00:12,"(40.6998901, -73.9410586)"
B03181,EVEREST LUXURY CORP,3154003255,No,2322,ARTHUR AVENUE  SUITE 212A,BRONX,NY,10458,BLACK CAR BASE,40.8538364,-73.8888478,12/04/2023,18:00:12,"(40.8538364, -73.8888478)"
B02760,VISMAR RADIO DISPATCH INC.,9174737777,No,1040-52,FREEMAN STREET,BRONX,NY,10459,LIVERY BASE,40.828466,-73.88637,12/04/2023,18:00:12,"(40.828466, -73.88637)"
B01268,LAKEVIEW CARS INC.,7184420001,No,1113,VICTORY BOULEVARD,STATEN ISLAND,NY,10301,LIVERY BASE,40.617782,-74.101897,12/04/2023,18:00:12,"(40.617782, -74.101897)"
B03109,ROLUX INC,9178652793,No,160-23,ROCKAWAY BOULEVARD  SUITE 4,JAMAICA,NY,11434,BLACK CAR BASE,40.7101523,-73.7928657,12/04/2023,18:00:12,"(40.7101523, -73.7928657)"
B03256,JETSET TRANSPORTATION CORP.,3475667735,No,390,TIFFANY STREET,BRONX,NY,10474,BLACK CAR BASE,40.8078557,-73.889397,12/04/2023,18:00:12,"(40.8078557, -73.889397)"
B02971,"ULTRA BLACK CAR TRANSPORTATION, CORP.",7189929162,No,277,EAST  165 STREET,BRONX,NY,10456,BLACK CAR BASE,40.82939,-73.916073,12/04/2023,18:00:12,"(40.82939, -73.916073)"
B03168,KAYROS TRANSPORTATION INC,9174408678,No,726,BROADWAY,BAYONNE,NJ,07002,BLACK CAR BASE,40.6717762,-74.1114053,12/04/2023,18:00:12,"(40.6717762, -74.1114053)"
B03057,PROSPECT LUXURY CAR SERVICE,9294003838,No,1161,SOUTHERN BOULEVARD,BRONX,NY,10459,BLACK CAR BASE,40.8280717,-73.8922125,12/04/2023,18:00:12,"(40.8280717, -73.8922125)"
B02641,AVENUE X CAR SERVICE INC.,7183365200,No,245,AVENUE X,BROOKLYN,NY,11223,LIVERY BASE,40.590312,-73.97371,12/04/2023,18:00:12,"(40.590312, -73.97371)"
B03364,A & M IKEA INC.,7183335766,No,9126,4TH AVENUE,BROOKLYN,NY,11209,BLACK CAR BASE,40.6186213,-74.030265,12/04/2023,18:00:12,"(40.6186213, -74.030265)"
B03341,STANDARDLUX INC.,3473365559,No,2765,ATLANTIC AVENUE,BROOKLYN,NY,11207,BLACK CAR BASE,40.6765606,-73.8924173,12/04/2023,18:00:12,"(40.6765606, -73.8924173)"
B90395,VOLGA TRANSP CORP,7187437979,No,2732,GERRITSEN AVENUE,BROOKLYN,NY,11229,PARATRANSIT BASE,40.593221,-73.946019,12/04/2023,18:00:12,"(40.593221, -73.946019)"
B01928,DISCOVER LIMO INC,7188517777,No,740,MYRTLE AVENUE,BROOKLYN,NY,11205,BLACK CAR BASE,40.62617,-73.994136,12/04/2023,18:00:12,"(40.62617, -73.994136)"
B03502,UNNIFIRST CAR SERVICE CORP.,7189246666,No,2929,THIRD AVENUE  2ND FLOOR,BRONX,NY,10455,BLACK CAR BASE,40.8165858,-73.8908315,12/04/2023,18:00:12,"(40.8165858, -73.8908315)"
B00053,CHARGE AND RIDE INC,7183921824,No,41-24,38 STREET,LIC,NY,11101,BLACK CAR BASE,40.745304,-73.95305,12/04/2023,18:00:12,"(40.745304, -73.95305)"
B03517,NYC GO TRANSPORTATION LLC,6469741283,No,3602A,EAST TREMONT AVENUE  1FL,BRONX,NY,10465,BLACK CAR BASE,40.8286319,-73.8247894,12/04/2023,18:00:12,"(40.8286319, -73.8247894)"
B03153,GYPSY TRANSPORTATION CORP.,7186171111,No,1684,GLEASON AVENUE,BRONX,NY,10472,BLACK CAR BASE,40.829157,-73.8709757,12/04/2023,18:00:12,"(40.829157, -73.8709757)"
B03211,GREENLIGHT TRANSPORTATION SERVICE LLC,7184806875,No,101-20,LIBERTY AVENUE,OZONE PARK,NY,11417,BLACK CAR BASE,40.6811834,-73.8386615,12/04/2023,18:00:12,"(40.6811834, -73.8386615)"
B02279,MATAMOROS CAR SERVICE INC.,7183900035,No,1017,POST AVENUE,STATEN ISLAND,NY,10302,LIVERY BASE,40.633003,-74.134202,12/04/2023,18:00:12,"(40.633003, -74.134202)"
B00350,A & A CHAMPION CAR LIMO SVC INC,7187798080,No,107-04,37 AVENUE,CORONA,NY,11368,LIVERY BASE,40.753702,-73.86129,12/04/2023,18:00:12,"(40.753702, -73.86129)"
B00078,R & R ROAD LIMO SVCE INC,7185858500,No,865,EAST  138 STREET,BRONX,NY,10454,LUXURY/LIMOUSINE,40.803251,-73.90843,12/04/2023,18:00:12,"(40.803251, -73.90843)"
B03353,PEACE TRANSPORTATION SERVICES INC.,9147405485,No,1,WOLFS LANE SUITE 311,PELHAM,NY,10803,BLACK CAR BASE,40.9105538,-73.8104008,12/04/2023,18:00:12,"(40.9105538, -73.8104008)"
B03370,ANDREW TRANSPORTATION CORP,6462810962,No,1391,NELSON AVENUE,BRONX,NY,10452,BLACK CAR BASE,40.8417055,-73.9226608,12/04/2023,18:00:12,"(40.8417055, -73.9226608)"
B00248,YELLOWSTONE TRANSPORTATION INC.,7185397777,No,41-31,MAIN STREET,FLUSHING,NY,11355,LIVERY BASE,40.758114,-73.82962,12/04/2023,18:00:12,"(40.758114, -73.82962)"
B03036,ZYNC INC,7184821818,Yes,12-04,44 AVENUE,LIC,NY,11101,BLACK CAR BASE,40.749688,-73.9483835,12/04/2023,18:00:12,"(40.749688, -73.9483835)"
B01616,"H & B CAR AND LIMOUSINE, INC",7185072600,No,38-12,ASTORIA BOULEVARD,ASTORIA,NY,11103,LIVERY BASE,40.739709,-73.890955,12/04/2023,18:00:12,"(40.739709, -73.890955)"
B01470,AGUILA CAR & LIMO CORPORATION,7186998100,No,51-47,69TH STREET,WOODSIDE,NY,11377,LIVERY BASE,40.745662,-73.86428,12/04/2023,18:00:12,"(40.745662, -73.86428)"
B02913,DAT TRANSPORTATION INC.,7183288889,No,650,SOUNDVIEW AVENUE,BRONX,NY,10473,BLACK CAR BASE,40.818455,-73.86271,12/04/2023,18:00:12,"(40.818455, -73.86271)"
B03331,GIGI NYC INC,7185598383,No,96-28,ALSTYNE AVENUE,CORONA,NY,11368,BLACK CAR BASE,40.7430479,-73.8664612,12/04/2023,18:00:12,"(40.7430479, -73.8664612)"
B02834,811 TRANSIT CORP,9176887993,No,107-50,VAN WYCK EPXY  FL1,EAST ELMHURST,NY,11419,BLACK CAR BASE,40.761071,-73.876906,12/04/2023,18:00:12,"(40.761071, -73.876906)"
B00972,N.J.M.INC.,7189672500,No,5230,ARTHUR KILL ROAD,STATEN ISLAND,NY,10307,LIVERY BASE,40.546918,-74.23034,12/04/2023,18:00:12,"(40.546918, -74.23034)"
B02196,"N & T DOUBLE DIAMOND LIMOUSINES, INC.",7183517273,No,2041-D,HYLAN BOULEVARD,STATEN ISLAND,NY,10306,LUXURY/LIMOUSINE,40.580669,-74.09968,12/04/2023,18:00:12,"(40.580669, -74.09968)"
B03081,DLS CAR AND LIMOUSINE SERVICE CORP,2125751426,No,623,MEACHAM AVENUE,ELMONT,NY,11003,BLACK CAR BASE,40.6910151,-73.6907346,12/04/2023,18:00:12,"(40.6910151, -73.6907346)"
B02863,NYC MIDDTOWN LIMO CORP,7188481221,No,100-01,97 AVENUE,OZONE PARK,NY,11416,BLACK CAR BASE,40.687993,-73.83363,12/04/2023,18:00:12,"(40.687993, -73.83363)"
B01176,SANTO DOMINGO CAR LIMO SERVICES INC,7186995959,No,96-28,ALSTYNE AVENUE,CORONA,NY,11368,LIVERY BASE,40.743032,-73.866445,12/04/2023,18:00:12,"(40.743032, -73.866445)"
B02330,"OCHO LUXURY CAR, INC.",7184382092,No,507,40 STREET,BROOKLYN,NY,11232,BLACK CAR BASE,40.650685,-74.004241,12/04/2023,18:00:12,"(40.650685, -74.004241)"
B00306,LOVE LIMOUSINE NYC LTD,7186331554,No,41-24,38 STREET,LIC,NY,11101,BLACK CAR BASE,40.638477,-73.983333,12/04/2023,18:00:12,"(40.638477, -73.983333)"
B80108,L & W EXPRESS VAN SERVICE CORP,9172436410,No,136-31,41ST AVENUE  7A,FLUSHING,NY,11355,COMMUTER VAN AUTHORITY BASE,40.759009,-73.828513,12/04/2023,18:00:12,"(40.759009, -73.828513)"
B01958,ST.ALBANS-HOLLIS CAR SERVICE INC.,7184790400,No,200-10,HOLLIS AVENUE,ST. ALBANS,NY,11412,LIVERY BASE,40.705938,-73.75715,12/04/2023,18:00:12,"(40.705938, -73.75715)"
B03077,MGL TRANSPORT01 INC,9299895585,No,238,JUNIUS STREET,BROOKLYN,NY,11212,BLACK CAR BASE,40.6971539,-73.6240911,12/04/2023,18:00:12,"(40.6971539, -73.6240911)"
B01454,FREEDOM LIMO & CAR SERVICE,7184525400,No,96,RALPH AVENUE,BROOKLYN,NY,11221,LIVERY BASE,40.686713,-73.923689,12/04/2023,18:00:12,"(40.686713, -73.923689)"
B03038,"SOUTH BRONX TRANSPORTATION,INC.",3475907005,No,250,BROOK AVENUE,BRONX,NY,10454,BLACK CAR BASE,40.7101523,-73.7928657,12/04/2023,18:00:12,"(40.7101523, -73.7928657)"
B01913,MIRAGE LIMOUSINE SERVICE INC,7189377500,No,36 - 01,20 AVENUE  2ND FLOOR,ASTORIA,NY,11105,LUXURY/LIMOUSINE,40.777951,-73.90376,12/04/2023,18:00:12,"(40.777951, -73.90376)"
B03114,PRAISE RIDE INC.,3475793828,No,38,WAVERLY AVENUE,BROOKLYN,NY,11205,BLACK CAR BASE,40.7101523,-73.7928657,12/04/2023,18:00:12,"(40.7101523, -73.7928657)"
B02157,REAGAN CONVEYANCE  CORP.,5168612019,No,62,MAIN STREET,PT WASHINGTON,NY,11050,LUXURY/LIMOUSINE,40.836412,-73.70666,12/04/2023,18:00:12,"(40.836412, -73.70666)"
B02968,NEW GENERATION BLACK CAR TRANSPORTATION CORP.,3479916111,No,2112,WESTCHESTER AVENUE,BRONX,NY,10462,BLACK CAR BASE,40.82923,-73.871067,12/04/2023,18:00:12,"(40.82923, -73.871067)"
B00151,KINGSBAY CAR SERVICE INC,7183323131,No,2111,AVENUE Z,BROOKLYN,NY,11235,LIVERY BASE,40.588885,-73.947936,12/04/2023,18:00:12,"(40.588885, -73.947936)"
B01568,N.Y. MEXICANA CAR & LIMO SVC CRP.,7185921300,No,97 - 52,CORONA AVENUE,CORONA,NY,11368,LIVERY BASE,40.741807,-73.86755,12/04/2023,18:00:12,"(40.741807, -73.86755)"
B00789,VITAL TRANSPORTATION INC.,7184722500,No,41-24,38 STREET,LIC,NY,11101,BLACK CAR BASE,40.746697,-73.926818,12/04/2023,18:00:12,"(40.746697, -73.926818)"
B02920,AMAZING CAR AND LIMO SERVICE INC,7189425959,No,1903,WEST FARMS RD,BRONX,NY,10460,LIVERY BASE,40.7648,-73.9808,12/04/2023,18:00:12,"(40.7648, -73.9808)"
B01013,AMERICANA TRANSPORTATION LLC,7184491111,No,282,AVENUE U,BROOKLYN,NY,11223,LIVERY BASE,40.596741,-73.97373,12/04/2023,18:00:12,"(40.596741, -73.97373)"
B02103,A & S LIMOUSINE SERVICE CORP,7184551900,No,712,BROADWAY  2ND FLOOR,BROOKLYN,NY,11206,LIVERY BASE,40.701213,-73.943166,12/04/2023,18:00:12,"(40.701213, -73.943166)"
B01644,MUSIC EXPRESS/N.Y. INC,2127365405,No,674,CLIFTON AVENUE,CLIFTON,NJ,07011,LUXURY/LIMOUSINE,40.901484,-74.115919,12/04/2023,18:00:12,"(40.901484, -74.115919)"
B03334,WTM 365 INC.,5163184721,No,1979,MARCUS AVENUE,LAKE SUCCESS,NY,11042,LUXURY/LIMOUSINE,40.7550289,-73.6935617,12/04/2023,18:00:12,"(40.7550289, -73.6935617)"
B02671,COMMUNITY CAR SERVICE PRISCILLA CORP,7183668800,No,896,WYCKOFF AVENUE  2R,BROOKLYN,NY,11237,LIVERY BASE,40.696906,-73.906739,12/04/2023,18:00:12,"(40.696906, -73.906739)"
B01606,LA MEXICANA EXPRESS INC.,7184375555,No,4611,5 AVENUE,BROOKLYN,NY,11220,LIVERY BASE,40.644713,-74.003866,12/04/2023,18:00:12,"(40.644713, -74.003866)"
B02852,OP CAR SERVICE INC.,7186598888,No,90-19,LIBERTY AVENUE,OZONE PARK,NY,11417,BLACK CAR BASE,40.680275,-73.848047,12/04/2023,18:00:12,"(40.680275, -73.848047)"
B03056,INSPIRATION GROUP INC,9292356897,No,36,ROCKLAND DR,JERICHO,NY,11753,BLACK CAR BASE,40.7806592,-73.5382725,12/04/2023,18:00:12,"(40.7806592, -73.5382725)"
B02245,OCEANA CAR AND LIMO,7183751001,No,2395,CONEY ISLAND AVENUE,BROOKLYN,NY,11223,LIVERY BASE,40.598608,-73.96108,12/04/2023,18:00:12,"(40.598608, -73.96108)"
B03156,EPIC CAR SERVICE INC.,7184013742,No,385,EAST  152 STREET,BRONX,NY,10455,BLACK CAR BASE,40.8185779,-73.9173128,12/04/2023,18:00:12,"(40.8185779, -73.9173128)"
B03200,L & J LOGISTICS CORP.,7186180222,No,912,SOUNDVIEW AVENUE  OFFICE #3,BRONX,NY,10473,BLACK CAR BASE,40.8234499,-73.8678681,12/04/2023,18:00:12,"(40.8234499, -73.8678681)"
B01349,CAPRICORN LIMO SVC INC,7187293000,No,43-24,37TH STREET,LIC,NY,11101,LUXURY/LIMOUSINE,40.745178,-73.928076,12/04/2023,18:00:12,"(40.745178, -73.928076)"
B01469,"BROTHERS CAR SERVICE, INC.",7182351100,No,241,CRESCENT STREET,BROOKLYN,NY,11208,LIVERY BASE,40.68342,-73.871853,12/04/2023,18:00:12,"(40.68342, -73.871853)"
B03441,ROYAL EXECUTIVE LIMO INC,9172773356,No,1378,SWEETMAN AVE  2,ELMONT,NY,11003,LUXURY/LIMOUSINE,40.7012909,-73.6920175,12/04/2023,18:00:12,"(40.7012909, -73.6920175)"
B01667,"NEW GOLDEN HORSE C/L SVC,INC.",7183589898,No,30-50,WHITESTONE EXPRESSWAY  101A,FLUSHING,NY,11354,LIVERY BASE,40.770532,-73.836442,12/04/2023,18:00:12,"(40.770532, -73.836442)"
B03282,HOLY TRANSPORTATION CORP.,7186847711,No,1626,ST PETERS AVENUE  GROUND FLOOR,BRONX,NY,10461,BLACK CAR BASE,40.8413409,-73.848243,12/04/2023,18:00:12,"(40.8413409, -73.848243)"
B03439,CLJ EXPRESS LIMO SERVICE INC,8335525466,No,1706,LEXINGTON AVENUE,NEW YORK,NY,10029,BLACK CAR BASE,40.792806,-73.9461681,12/04/2023,18:00:12,"(40.792806, -73.9461681)"
B03321,"CRESCENT LUXURY CLS, INC.",6316620284,No,14,MARIEL COURT,CENTEREACT,NY,11720,LUXURY/LIMOUSINE,40.854348,-73.06791,12/04/2023,18:00:12,"(40.854348, -73.06791)"
B03340,CEO CHAUFFEURED SERVICES CORP,7182005100,No,10,HEITZ PLACE,HICKSVILLE,NY,11801,LUXURY/LIMOUSINE,40.7101523,-73.7928657,12/04/2023,18:00:12,"(40.7101523, -73.7928657)"
B02016,PLANET LIMOUSINE LLC,8008059251,No,202,JERICHO TURNPIKE,FLORAL PARK,NY,11001,LUXURY/LIMOUSINE,40.728618,-73.703601,12/04/2023,18:00:12,"(40.728618, -73.703601)"
B02110,"OPTIMUM CAR & LIMO, INC.",7186909128,No,241,37TH STREET  STE# 1-4-B443,BROOKLYN,NY,11232,BLACK CAR BASE,40.678782,-73.989979,12/04/2023,18:00:12,"(40.678782, -73.989979)"
B01437,MERENGUE LIMO & C/S INC,7186585700,No,135-10,JAMAICA AVENUE,RICHMOND HILL,NY,11418,LIVERY BASE,40.70241,-73.817189,12/04/2023,18:00:12,"(40.70241, -73.817189)"
B03033,FLEX EXPRESS CORP.,7186025000,No,1266,MYRTLE AVENUE,BROOKLYN,NY,11221,BLACK CAR BASE,40.6977861,-73.9266846,12/04/2023,18:00:12,"(40.6977861, -73.9266846)"
B03245,UASLUXURY1 INC,6466840001,No,85-56,118 STREET,KEW GARDENS,NY,11415,BLACK CAR BASE,40.7010375,-73.8326371,12/04/2023,18:00:12,"(40.7010375, -73.8326371)"
B03311,EDL TRANSPORTATION SERVICES LLC.,3472701668,No,169,LINCOLN AVENUE  SUITE #205,BRONX,NY,10454,BLACK CAR BASE,40.8093689,-73.9287755,12/04/2023,18:00:12,"(40.8093689, -73.9287755)"
B03041,PUEBLA CITY INC.,7184370707,No,3916,9 AVENUE,BROOKLYN,NY,11232,LIVERY BASE,40.6457336,-73.9956882,12/04/2023,18:00:12,"(40.6457336, -73.9956882)"
B03421,A1 ABSOLUTE CORP,3474312831,No,10,EAST  183 STREET,BRONX,NY,10453,BLACK CAR BASE,40.8584626,-73.9033242,12/04/2023,18:00:12,"(40.8584626, -73.9033242)"
B03102,METRO LUXURY INC,7186655079,No,625,EAST  137 STREET,BRONX,NY,10454,BLACK CAR BASE,40.8055339,-73.9159269,12/04/2023,18:00:12,"(40.8055339, -73.9159269)"
B03199,RINCON TRANSPORTATION LLC,7187010178,No,833,DAWSON STREET,BRONX,NY,10459,BLACK CAR BASE,40.8189458,-73.8986672,12/04/2023,18:00:12,"(40.8189458, -73.8986672)"
B03107,JD XPRESS INC.,3475084118,No,118 - 35,QUEENS BOULEVARD  SUITE #400,FOREST HILLS,NY,11375,BLACK CAR BASE,40.7148204,-73.8310437,12/04/2023,18:00:12,"(40.7148204, -73.8310437)"
B02826,NEW BELL LUXURY CORP,7182304490,No,640,MYRTLE AVENUE,BROOKLYN,NY,11205,BLACK CAR BASE,40.694109,-73.958852,12/04/2023,18:00:12,"(40.694109, -73.958852)"
B03388,BEN'S INTERNATIONAL LUXURY TRANSPORTATION LLC,7272035757,No,159,TREETOP CIRCLE,NANUET,NY,10954,LUXURY/LIMOUSINE,41.1163285,-74.0206606,12/04/2023,18:00:12,"(41.1163285, -74.0206606)"
B90568,AMG TRANSPORTATION INC.,7186460550,No,34,LORD AVE,LAWRENCE,NY,11559,PARATRANSIT BASE,40.658652,-73.580098,12/04/2023,18:00:12,"(40.658652, -73.580098)"
B03011,GOOD DAY TRANSPORTATION INC,3475336221,No,5709,FLATLANDS AVENUE,BROOKLYN,NY,11234,BLACK CAR BASE,40.6473546,-73.9689423,12/04/2023,18:00:12,"(40.6473546, -73.9689423)"
B03534,NEW YORK BORI TRANSPORTATION LLC,3478886178,No,3010,EASTCHESTER ROAD,BRONX,NY,10469,BLACK CAR BASE,40.8698076,-73.842645,12/04/2023,18:00:12,"(40.8698076, -73.842645)"
B02949,MEEM SERVICES INC,9174827281,No,24506,JERICHO TKPE  SUITE#LL111,FLORAL PARK,NY,11001,LUXURY/LIMOUSINE,40.724491,-73.723094,12/04/2023,18:00:12,"(40.724491, -73.723094)"
B02389,"EMBARQUE N.Y., INC.",7187770890,No,24 - 59,47TH STREET,ASTORIA,NY,11103,LUXURY/LIMOUSINE,40.741147,-73.942306,12/04/2023,18:00:12,"(40.741147, -73.942306)"
B01601,YOURS CAR SERVICE INC,7186805200,Yes,7205,3 AVENUE,BROOKLYN,NY,11209,LIVERY BASE,40.633303,-74.026743,12/04/2023,18:00:12,"(40.633303, -74.026743)"
B03366,DESHI TRANSPORTATION INC.,3474164996,No,83-10,ROCKAWAY BOULEVARD,OZONE PARK,NY,11416,BLACK CAR BASE,40.6835729,-73.8572063,12/04/2023,18:00:12,"(40.6835729, -73.8572063)"
B03209,PARAMOUNT TRANSPORT INC.,7184752191,No,729,BURKE AVENUE  SUITE #B,BRONX,NY,10467,BLACK CAR BASE,40.8716488,-73.8656205,12/04/2023,18:00:12,"(40.8716488, -73.8656205)"
B03154,AGAPE LIMO CORP.,7187073141,No,560,SOUTHERN BOULEVARD,BRONX,NY,10455,LIVERY BASE,40.8122852,-73.903059,12/04/2023,18:00:12,"(40.8122852, -73.903059)"
B01553,CITY LINE CAR SERVICE INC,7188485555,No,80-06,101 AVENUE,OZONE PARK,NY,11416,LIVERY BASE,40.680573,-73.858435,12/04/2023,18:00:12,"(40.680573, -73.858435)"
B00001,LONDON TOWNCARS INC,2129889700,No,40-14,23 STREET,L.I.C,NY,11101,LUXURY/LIMOUSINE,40.754052,-73.940055,12/04/2023,18:00:12,"(40.754052, -73.940055)"
B03458,WAVE LUXURY CORP,9144139364,No,34-18,NORTHERN BOULEVARD  SUITE 45,L.I.C.,NY,11101,BLACK CAR BASE,40.7517583,-73.929177,12/04/2023,18:00:12,"(40.7517583, -73.929177)"
B02931,NEW TECHNOLOGY TRANSPORTATION INC.,9179332001,No,69,FEATHERBED LANE,BRONX,NY,10452,BLACK CAR BASE,40.846629,-73.917362,12/04/2023,18:00:12,"(40.846629, -73.917362)"
B02401,NORTHSIDE BK LLC,7189634444,No,207,BEDFORD AVENUE,BROOKLYN,NY,11211,BLACK CAR BASE,40.716862,-73.958563,12/04/2023,18:00:12,"(40.716862, -73.958563)"
B03047,"STS LUXURY, INC",7186844444,No,912,SOUNDVIEW AVENUE  SUITE 6,BRONX,NY,10473,BLACK CAR BASE,40.8234499,-73.8678681,12/04/2023,18:00:12,"(40.8234499, -73.8678681)"
B00911,"RIVERSIDE PLUS RADIO DISPATCH, INC.",7183658888,No,2383,WASHINGTON AVENUE,BRONX,NY,10458,LIVERY BASE,40.856193,-73.889072,12/04/2023,18:00:12,"(40.856193, -73.889072)"
B02462,TIFFANY'S CAR SERVICE INC.,7189617070,No,13-26,133 PLACE,COLLEGE POINT,NY,11356,LIVERY BASE,40.766346,-73.833181,12/04/2023,18:00:12,"(40.766346, -73.833181)"
B03463,APOYO TRANSPORTATION LLC,3479475455,No,3148,EAST TREMONT AVENUE  STE 1,BRONX,NY,10461,BLACK CAR BASE,40.8375914,-73.8347309,12/04/2023,18:00:12,"(40.8375914, -73.8347309)"
B01051,B Q N C/S CORP,7183281111,No,1104,GARRISON AVENUE,BRONX,NY,10474,LIVERY BASE,40.819497,-73.88907,12/04/2023,18:00:12,"(40.819497, -73.88907)"
B02840,RAELEEN CAR CORP.,7189753200,No,565,VAN NEST AVENUE,BRONX,NY,10460,BLACK CAR BASE,40.755734,-73.93795,12/04/2023,18:00:12,"(40.755734, -73.93795)"
B03051,VILLE DE LA LIBERTE CHAUFFEUR INC,7187888888,No,689,SENECA AVENUE,RIDGEWOOD,NY,11385,BLACK CAR BASE,40.7030448,-73.9076397,12/04/2023,18:00:12,"(40.7030448, -73.9076397)"
B01984,NY 88 EXPRESS CORP.,7182388822,No,6506,11 AVENUE,BROOKLYN,NY,11219,LIVERY BASE,40.628543,-74.006362,12/04/2023,18:00:12,"(40.628543, -74.006362)"
B03520,A B O LUXURY CAR CORP,7185775565,No,1560,MAYFLOWER AVENUE,BRONX,NY,10461,BLACK CAR BASE,40.84246,-73.8344491,12/04/2023,18:00:12,"(40.84246, -73.8344491)"
B03124,MARR LIMO LLC,3477442474,No,177,WHITE PLAINS RD  77A,TARRYTOWN,NY,10591,LUXURY/LIMOUSINE,41.0652484,-73.8530039,12/04/2023,18:00:12,"(41.0652484, -73.8530039)"
B03372,RIDE CURRENT LLC,3472905042,No,551-555,W 235TH STREET SUITE 2,BRONX,NY,10463,BLACK CAR BASE,40.8857378,-73.9093918,12/04/2023,18:00:12,"(40.8857378, -73.9093918)"
B02917,C & A BLACK CAR CORP.,7184052222,No,3106,WEBSTER AVENUE,BRONX,NY,10467,BLACK CAR BASE,40.871095,-73.876751,12/04/2023,18:00:12,"(40.871095, -73.876751)"
B02410,"POLO LIMOUSINE, CORP.",2122060029,No,325,EAST   88 STREET,NEW YORK,NY,10128,LUXURY/LIMOUSINE,40.778792,-73.949371,12/04/2023,18:00:12,"(40.778792, -73.949371)"
B03157,CAPRICE CAR SERVICE CORP.,7184249300,No,54 - 04,ROOSEVELT AVENUE,WOODSIDE,NY,11377,BLACK CAR BASE,40.7446671,-73.9103946,12/04/2023,18:00:12,"(40.7446671, -73.9103946)"
B02352,"SUPER FAST LIMOUSINE SERVICE, INC.",7184386262,No,4409,5TH AUENUE,BROOKLYN,NY,11220,BLACK CAR BASE,40.64816,-74.00679,12/04/2023,18:00:12,"(40.64816, -74.00679)"
B90579,MASSIVE TRANSPORTATION INC,9146643124,No,145,BROOKSIDE AVENUE,MOUNT VERNON,NY,10553,PARATRANSIT BASE,40.910101,-73.816897,12/04/2023,18:00:12,"(40.910101, -73.816897)"
B03108,NEW ADAM LUXURY CORP.,3477011051,No,565,4 AVENUE,BROOKLYN,NY,11215,BLACK CAR BASE,40.7101523,-73.7928657,12/04/2023,18:00:12,"(40.7101523, -73.7928657)"
B02067,"GROUP AMERICAR TRANSPORTATION,LLC.",2126298833,No,718,3 AVENUE,BROOKLYN,NY,11232,BLACK CAR BASE,40.756839,-73.999141,12/04/2023,18:00:12,"(40.756839, -73.999141)"
B01846,ROMANTIQUE LIMOUSINE INC.,7182327273,No,1421,86 STREET,BROOKLYN,NY,11228,LUXURY/LIMOUSINE,40.612483,-74.010847,12/04/2023,18:00:12,"(40.612483, -74.010847)"
B01492,MOBILE #1 CAR SERVICE INC.,7183838300,No,361,UNION AVENUE,BROOKLYN,NY,11211,LIVERY BASE,40.711192,-73.951373,12/04/2023,18:00:12,"(40.711192, -73.951373)"
B03390,READY GO USA INC,2124481088,No,5030,BROADWAY  SUIT 642,NEW YORK,NY,10034,BLACK CAR BASE,40.8688818,-73.9169154,12/04/2023,18:00:12,"(40.8688818, -73.9169154)"
B01485,FLAMINGO TRANSP. & LIMO. SERVICES INC.,7184934307,No,5924,GLENWOOD ROAD,BROOKLYN,NY,11234,LIVERY BASE,40.675021,-73.93308,12/04/2023,18:00:12,"(40.675021, -73.93308)"
B03298,MI BELLA PUEBLA EXPRESS INC.,7184587373,No,69-35,51 AVENUE,WOODSIDE,NY,11377,BLACK CAR BASE,40.7101523,-73.7928657,12/04/2023,18:00:12,"(40.7101523, -73.7928657)"
B02728,NEWTOWN PRIVATE CAR SERVICE INC.,7187987802,No,3443,BAYCHESTER AVENUE,BRONX,NY,10469,LIVERY BASE,40.880322,-73.83821,12/04/2023,18:00:12,"(40.880322, -73.83821)"
B02334,"GROUND TRAVEL SERVICES II, LTD.",7183666856,No,11-11,44TH DR. FLOOR 2  SUITE H,LONGISLAND CITY,NY,11101,BLACK CAR BASE,40.703281,-73.892304,12/04/2023,18:00:12,"(40.703281, -73.892304)"
B02093,V.J. CAR & LIMO SVC INC.,7186417777,No,104-08,123RD STREET,RICHMOND HILL,NY,11419,LIVERY BASE,40.691906,-73.82342,12/04/2023,18:00:12,"(40.691906, -73.82342)"
B02569,LAPUMA GO GREEN LLC,2123642000,No,33-24,NORTHERN BOULEVARD  5TH FLOOR,LONG ISLAND CIT,NY,11101,LIVERY BASE,40.751777,-73.930235,12/04/2023,18:00:12,"(40.751777, -73.930235)"
B02563,FENIX XL CAR AND LIMO SERVICE CORP.,7188212121,Yes,586,SENECA AVENUE,RIDGEWOOD,NY,11385,BLACK CAR BASE,40.773186,-73.03862,12/04/2023,18:00:12,"(40.773186, -73.03862)"
B03100,MORELOS CAR SERVICE INC.,7188378200,No,1810,WEST    6 STREET,BROOKLYN,NY,11223,BLACK CAR BASE,40.6032263,-73.978986,12/04/2023,18:00:12,"(40.6032263, -73.978986)"
B80164,"TRANSXPRESS SERVICES,INC",7188999348,No,34-52,60TH STREET,WOODSIDE,NY,11377,COMMUTER VAN AUTHORITY BASE,40.750472,-73.902523,12/04/2023,18:00:12,"(40.750472, -73.902523)"
B00652,RESCUE C/S INC,7183630200,No,264,TROY AVENUE  1FL,BROOKLYN,NY,11213,LIVERY BASE,40.672213,-73.93892,12/04/2023,18:00:12,"(40.672213, -73.93892)"
B03536,AFY GROUP INC,8006590715,No,353,WEST 48TH SREET  4TH FL,NEW YORK,NY,10036,BLACK CAR BASE,40.7620546,-73.9888515,12/04/2023,18:00:12,"(40.7620546, -73.9888515)"
B02969,LYFE AUTO GROUP INC,7187066234,No,32-10,GREENPOINT AVENUE,LIC,NY,11101,BLACK CAR BASE,40.734944,-73.935733,12/04/2023,18:00:12,"(40.734944, -73.935733)"
B03316,BLADE URBAN GROUND MOBILITY LLC.,9143375500,No,39,EDGEWOOD LANE,BRONXVILLE,NY,10708,BLACK CAR BASE,40.9419277,-73.8186845,12/04/2023,18:00:12,"(40.9419277, -73.8186845)"
B03351,CARTEL NEW YORK INC.,3472730304,No,162-13,46TH AVENUE  #3B,FLUSHING,NY,11358,BLACK CAR BASE,40.7489309,-73.7568201,12/04/2023,18:00:12,"(40.7489309, -73.7568201)"
B00623,MANHATTAN INT'L LIMO NETWORK LLC,7187770890,No,24-59,47 STREET,ASTORIA,NY,11103,LUXURY/LIMOUSINE,40.741147,-73.942306,12/04/2023,18:00:12,"(40.741147, -73.942306)"
B03192,PERFECTION CAR SERVICE INC,9293435305,No,3673,BRONXWOOD AVENUE,BRONX,NY,10469,BLACK CAR BASE,40.8793217,-73.8586597,12/04/2023,18:00:12,"(40.8793217, -73.8586597)"
B02532,COZY RIDE LIMOUSINE INC,7183595000,No,36-22A,UNION STREET  SUITE #3R,FLUSHING,NY,11354,BLACK CAR BASE,40.763441,-73.828039,12/04/2023,18:00:12,"(40.763441, -73.828039)"
B02219,ALL QUEENS CAR & LIMOUSINE INC.,7183921234,Yes,46-17,VERNON BOULEVARD,LIC,NY,11101,LIVERY BASE,40.74628,-73.95263,12/04/2023,18:00:12,"(40.74628, -73.95263)"
B03508,ALLCOMFORT NY CORP,6463795539,No,130,CHARLES ST,FLORAL PARK,NY,11001,LUXURY/LIMOUSINE,40.7277021,-73.6946438,12/04/2023,18:00:12,"(40.7277021, -73.6946438)"
B03382,ALONG CAR SERVICE CORP.,8337525664,No,1161,INTERVALE AVE,BRONX,NY,10459,LIVERY BASE,40.8165858,-73.8908315,12/04/2023,18:00:12,"(40.8165858, -73.8908315)"
B02311,FAST CITY CAR & LIMO SVC INC.,7182820973,No,3616,CHURCH AVENUE,BROOKLYN,NY,11203,LIVERY BASE,40.650862,-73.943113,12/04/2023,18:00:12,"(40.650862, -73.943113)"
B03120,ABIX TRANSPORTATION CORP,7186842224,No,7,SKYLINE DRIVE,HAWTHORNE,NY,10532,BLACK CAR BASE,41.0904852,-73.813189,12/04/2023,18:00:12,"(41.0904852, -73.813189)"
B02926,SAI EXECUTIVE LIMO CORP,6469200000,No,4,DORIS RD,HICKSVILLE,NY,11801,LUXURY/LIMOUSINE,40.754119,-73.526293,12/04/2023,18:00:12,"(40.754119, -73.526293)"
B03128,RIDE SMART CORP.,9146990785,No,8,E PROSPECT AVENUE  STE#C,MOUNT VERNON,NY,10550,BLACK CAR BASE,40.912586,-73.8367978,12/04/2023,18:00:12,"(40.912586, -73.8367978)"
B01300,KENNEDY RAD DISP INC,2122348000,No,3696,BROADWAY,NEW YORK,NY,10031,LIVERY BASE,40.831241,-73.94661,12/04/2023,18:00:12,"(40.831241, -73.94661)"
B01710,"79 MASADA III, INC.",7183361515,No,2300,WEST    7 STREET  2ND FL,BROOKLYN,NY,11223,LIVERY BASE,40.617982,-73.958074,12/04/2023,18:00:12,"(40.617982, -73.958074)"
B03342,GLOBAL EXECUTIVE LIMOUSINE CORP,6466786285,No,1225,FRANKLIN AVE  325,GARDEN CITY,NY,11530,BLACK CAR BASE,40.7340743,-73.6354595,12/04/2023,18:00:12,"(40.7340743, -73.6354595)"
B03516,ZZAMAN GROUP INC,3477924682,No,80,W SUNRISE HWAY,VALLEY STREAM,NY,11581,LUXURY/LIMOUSINE,40.6600941,-73.7040494,12/04/2023,18:00:12,"(40.6600941, -73.7040494)"
B01061,DAT RADIO DISP INC,7183288888,No,650,SOUNDVIEW AVENUE,BRONX,NY,10473,LIVERY BASE,40.818455,-73.862707,12/04/2023,18:00:12,"(40.818455, -73.862707)"
B01057,NEW AMERICAN C/L SVC,7189727979,No,221,DITMAS AVENUE,BROOKLYN,NY,11218,LIVERY BASE,40.635927,-73.976186,12/04/2023,18:00:12,"(40.635927, -73.976186)"
B02050,"MAZIN  CAR & LIMO SVC., LLC",7188450577,No,125-01,LIBERTY AVENUE,RICHMOND HILL,NY,11419,LIVERY BASE,40.688403,-73.819306,12/04/2023,18:00:12,"(40.688403, -73.819306)"
B00900,BIG Q CAR SVC. INC.,7188464500,No,86-29,102 STREET,RICHMOND HILL,NY,11418,LIVERY BASE,40.695478,-73.84531,12/04/2023,18:00:12,"(40.695478, -73.84531)"
B00280,FLEET RADIO DISPATCH CORP.,7186517300,No,55,NORTH CENTRAL AVENUE,VALLEY STREAM,NY,11580,BLACK CAR BASE,40.749922,-73.903309,12/04/2023,18:00:12,"(40.749922, -73.903309)"
B03326,RESQ RIDE CORP.,8443477377,No,514,UNION AVE,MT. VERNON,NY,10550,BLACK CAR BASE,40.8996325,-73.8286138,12/04/2023,18:00:12,"(40.8996325, -73.8286138)"
B03194,"SUNNY DAY TRANSPORTATION,CORP",7184096281,No,1831,WOOD AVENUE,BRONX,NY,10460,BLACK CAR BASE,40.8354271,-73.8653717,12/04/2023,18:00:12,"(40.8354271, -73.8653717)"
B00955,GOLDEN-TOWN CAR & LIMOUSINE SERVICE INC.,7184297071,No,32-60,81 STREET,EAST ELMHURST,NY,11370-2002,LIVERY BASE,40.755791,-73.88638,12/04/2023,18:00:12,"(40.755791, -73.88638)"
B03473,WELLNESS TRANSIT LLC,7183130291,No,15,EAST 21ST STREET,HUNTINGTON,NY,11746,BLACK CAR BASE,40.8331188,-73.4097437,12/04/2023,18:00:12,"(40.8331188, -73.4097437)"
B02331,"CHICO EXPRESS LIMO, INC.",7182367777,No,6318,14 AVENUE,BROOKLYN,NY,11219,BLACK CAR BASE,40.625609,-73.998684,12/04/2023,18:00:12,"(40.625609, -73.998684)"
B01970,GRAFE STREET SERVICE CORP.,2123430300,No,282,AVENUE U,BROOKLYN,NY,11223,LUXURY/LIMOUSINE,40.596741,-73.973733,12/04/2023,18:00:12,"(40.596741, -73.973733)"
B03477,FAWA SERVICE CORPORATION,9172617100,No,188,AUDUBON AVENUE,NEW YORK,NY,10033,BLACK CAR BASE,40.8446417,-73.9355678,12/04/2023,18:00:12,"(40.8446417, -73.9355678)"
B90701,CATHAY EXPRESS TRANSPORTATION INC,2123373333,No,98-51,QUEENS BOULEVARD  SUITE #2G,REGO PARK,NY,11374,PARATRANSIT BASE,40.728061,-73.856072,12/04/2023,18:00:12,"(40.728061, -73.856072)"
B03279,AMERIKANISCH SERVICES CORP.,3476726354,No,1460,BROADWAY,NEW YORK,NY,10036,BLACK CAR BASE,40.7550721,-73.986259,12/04/2023,18:00:12,"(40.7550721, -73.986259)"
B03040,ZYT EXPRESS CORP.,7188806342,No,208,42 STREET,BROOKLYN,NY,11232,BLACK CAR BASE,40.6532337,-74.0121645,12/04/2023,18:00:12,"(40.6532337, -74.0121645)"
B02747,LEGEND LUXURY LIMO INC.,7187881234,No,209,25 STREET  2ND FLR,BROOKLYN,NY,11232,BLACK CAR BASE,40.681771,-73.98047,12/04/2023,18:00:12,"(40.681771, -73.98047)"
B00531,"FRIENDLY BEST-WAY TRANSPORTATION, INC.",7182526363,No,1448,CONEY ISLAND AVENUE,BROOKLYN,NY,11230,LIVERY BASE,40.622131,-73.96493,12/04/2023,18:00:12,"(40.622131, -73.96493)"
B03043,NYM MEDICAL TRANSPORTATION INC.,5166884182,No,2809,WEBSTER AVENUE,BRONX,NY,10458,LIVERY BASE,40.8666816,-73.8850294,12/04/2023,18:00:12,"(40.8666816, -73.8850294)"
B02972,BLESSING TRANSPORTATION GROUP INC,9174737373,No,1890,RANDALL AVE,BRONX,NY,10473,BLACK CAR BASE,40.830852,-73.881796,12/04/2023,18:00:12,"(40.830852, -73.881796)"
B03218,CHOICE TRANSPORTATION CORP.,9292434333,No,31-00,47TH AVENUE  SUITE 3100,LIC,NY,11101,BLACK CAR BASE,40.7427791,-73.9353777,12/04/2023,18:00:12,"(40.7427791, -73.9353777)"
B01200,NEW YORK APPLE CAR SERVICE INC,7184552121,No,1126,BUSHWICK AVENUE,BROOKLYN,NY,11221,LIVERY BASE,40.689376,-73.91839,12/04/2023,18:00:12,"(40.689376, -73.91839)"
B02003,"AVALON CORPORATE CAR,INC.",7184383666,No,41-24,38 STREET,LIC,NY,11101,BLACK CAR BASE,40.638477,-73.983333,12/04/2023,18:00:12,"(40.638477, -73.983333)"
B90545,M.J. TRANS CORP.,7183330400,No,1788,STILLWELL AVENUE,BROOKLYN,NY,11223,PARATRANSIT BASE,40.602774,-73.986703,12/04/2023,18:00:12,"(40.602774, -73.986703)"
B02531,CLEAN AIR CAR SERVICE AND PARKING CORP.,7184600888,No,130-30,31 AVENUE  SUITE 801,FLUSHING,NY,11354,LIVERY BASE,40.76995,-73.83898,12/04/2023,18:00:12,"(40.76995, -73.83898)"
B02799,CHURCH AVENUE EXPRESS INC,7186338444,No,99,CHURCH AVENUE,BROOKLYN,NY,11218,LIVERY BASE,40.64171,-73.98135,12/04/2023,18:00:12,"(40.64171, -73.98135)"
B03350,TEN I CON CORP,7187778070,No,48-02,25 AVENUE,ASTORIA,NY,11103,BLACK CAR BASE,40.7101523,-73.7928657,12/04/2023,18:00:12,"(40.7101523, -73.7928657)"
B03393,PARK LANE US SERVICE CORP,9174858032,No,115,NORTH BROADWAY  SUIT 205,HICKSVILLE,NY,11801,BLACK CAR BASE,40.7719023,-73.5267805,12/04/2023,18:00:12,"(40.7719023, -73.5267805)"
B01346,ARECIBO C/S INC,7187836465,No,171,5 AVENUE,BROOKLYN,NY,11217,LIVERY BASE,40.677669,-73.97994,12/04/2023,18:00:12,"(40.677669, -73.97994)"
B02492,"EZCAR.COM, LLC",7189656150,No,712,THIRD AVENUE,BROOKLYN,NY,11232,BLACK CAR BASE,40.663353,-73.998939,12/04/2023,18:00:12,"(40.663353, -73.998939)"
B02491,CALL THREES LLC,2123333333,No,335,BOND STREET,BROOKLYN,NY,11231,LIVERY BASE,40.678782,-73.989979,12/04/2023,18:00:12,"(40.678782, -73.989979)"
B01527,NEW FAMILY RAD DISP INC,2127497777,No,8,WEST  126 STREET  3 FLOOR,NEW YORK,NY,10027,LIVERY BASE,40.799069,-73.962505,12/04/2023,18:00:12,"(40.799069, -73.962505)"
B03064,AP LUXURY LIMOUSINE INC,9173308822,No,1225,FRANKLIN AVE  STE 325,GARDEN CITY,NY,11530,LUXURY/LIMOUSINE,40.7340743,-73.6354595,12/04/2023,18:00:12,"(40.7340743, -73.6354595)"
B00887,DIAL 7 CAR & LIMOUSINE SERVICE INC.,2127777777,No,43-23,35 STREET,LIC,NY,11101,LIVERY BASE,40.745471,-73.929332,12/04/2023,18:00:12,"(40.745471, -73.929332)"
B02814,BELL LX INC,7185931683,No,405,51 STREET,BROOKLYN,NY,11220,BLACK CAR BASE,40.645794,-74.012777,12/04/2023,18:00:12,"(40.645794, -74.012777)"
B02977,MEDROCK CAR SERVICE INC.,7188884848,No,162-13,46 AVENUE  #2 FLOOR,FLUSHING,NY,11358,BLACK CAR BASE,40.762492,-73.803318,12/04/2023,18:00:12,"(40.762492, -73.803318)"
B03266,HOYT LIMO & SERVICE CORP.,7182045861,No,2303,ASTORIA BOULEVARD,ASTORIA,NY,11102,BLACK CAR BASE,40.7718822,-73.9241116,12/04/2023,18:00:12,"(40.7718822, -73.9241116)"
B03314,"JBK NEW YORK, INC.",2122390363,No,325,WEST 38TH STREET 209,NEW YORK,NY,10018,BLACK CAR BASE,40.7538843,-73.9891306,12/04/2023,18:00:12,"(40.7538843, -73.9891306)"
B00856,BEE-BEE CAR SERVICE INC.,7184982525,No,663,BLAKE AVENUE,BROOKLYN,NY,11207,LIVERY BASE,40.668117,-73.894177,12/04/2023,18:00:12,"(40.668117, -73.894177)"
B02725,KIRIN TRANSPORTATION INC,7187990707,No,33-70,PRINCE ST  #703,FLUSHING,NY,11354,BLACK CAR BASE,40.755756,-73.836021,12/04/2023,18:00:12,"(40.755756, -73.836021)"
B03137,"IOT SERVICES, LLC",7189152183,No,460,WILLIS AVENUE  2ND FLR,BRONX,NY,10455,BLACK CAR BASE,40.8138769,-73.919173,12/04/2023,18:00:12,"(40.8138769, -73.919173)"
B02849,BROOKLYN RIDES CORP,7182186900,No,86 - 40,96 STREET,WOODHAVEN,NY,11421,BLACK CAR BASE,40.714797,-73.95974,12/04/2023,18:00:12,"(40.714797, -73.95974)"
B03207,QUICK AND LUXURIOUS BLACK CAR CORP,7188880438,No,122-05,23RD AVENUE,COLLEGE POINT,NY,11356,BLACK CAR BASE,40.7787517,-73.8457971,12/04/2023,18:00:12,"(40.7787517, -73.8457971)"
B01540,ROCKAWAY VIP SERVICE INC.,7186591111,No,122-21,ROCKAWAY BOULEVARD,SO. OZONE PARK,NY,11420,LIVERY BASE,40.675938,-73.815393,12/04/2023,18:00:12,"(40.675938, -73.815393)"
B00559,7 OCEAN EXPRESS INC.,7182663333,No,2111,AVENUE Z,BROOKLYN,NY,11235,LIVERY BASE,40.588885,-73.947936,12/04/2023,18:00:12,"(40.588885, -73.947936)"
B03470,IMPERIUM TRANS GROUP INC,6468873189,No,7Z,FRANKLIN ROAD,GREAT NECK,NY,11024,BLACK CAR BASE,40.8092059,-73.7323006,12/04/2023,18:00:12,"(40.8092059, -73.7323006)"
B02101,EXEC TRANSPORT INC,9176061978,No,38-17,CRESCENT STREET,LIC,NY,11101,BLACK CAR BASE,40.755182,-73.935989,12/04/2023,18:00:12,"(40.755182, -73.935989)"
B03060,EASTLAND BLACK CARS CORP,7183388100,No,2982,NOSTRAND AVENUE,BROOKLYN,NY,11229,BLACK CAR BASE,40.6115298,-73.9442895,12/04/2023,18:00:12,"(40.6115298, -73.9442895)"
B00221,PROFESSIONAL CAR SERVICE INC,2129236565,No,376,AUDUBON AVENUE,NEW YORK,NY,10033,LIVERY BASE,40.850482,-73.93131,12/04/2023,18:00:12,"(40.850482, -73.93131)"
B03273,ELEGANT LUXURY LIMO LLC,8558888595,No,266,JERICHO TURNPIKE,FLORAL PARK,NY,11001,LUXURY/LIMOUSINE,40.7290104,-73.7009209,12/04/2023,18:00:12,"(40.7290104, -73.7009209)"
B03292,PIBE TRANSPORTATION INC.,3473910707,No,1431,ZEREGA AVENUE,BRONX,NY,10462,BLACK CAR BASE,40.8372279,-73.8477726,12/04/2023,18:00:12,"(40.8372279, -73.8477726)"
B02480,WOODHAVEN LIMOUSINE INC,7183742609,No,25-26,50 STREET  STE 209B,WOODSIDE,NY,11377,LUXURY/LIMOUSINE,40.763637,-73.904449,12/04/2023,18:00:12,"(40.763637, -73.904449)"
B02163,JUNIORS EXPRESS CAR SERVICE INC.,7188591155,No,1509,CORTELYOU ROAD,BROOKLYN,NY,11226,LIVERY BASE,40.641619,-73.96416,12/04/2023,18:00:12,"(40.641619, -73.96416)"
B03229,FVR TRANSPORTATION INC.,9179295146,No,1379,WHITE PLAINS ROAD  #301,BRONX,NY,10462,BLACK CAR BASE,40.8353132,-73.8634416,12/04/2023,18:00:12,"(40.8353132, -73.8634416)"
B03362,AURA CAR SERVICE CORP.,2129818184,No,84,NAGLE AVENUE,NEW YORK,NY,10040,BLACK CAR BASE,40.8606645,-73.9281348,12/04/2023,18:00:12,"(40.8606645, -73.9281348)"
B02886,PRINCE LUXURY CORP.,7184396000,No,5915,4 AVENUE,BROOKLYN,NY,11220,BLACK CAR BASE,40.640935,-74.01791,12/04/2023,18:00:12,"(40.640935, -74.01791)"
B02406,MY SEDAN LLC,2124340400,No,700,ROCKWAY TURNPIKE  SUITE # 202,LAWRENCE,NY,11559,LUXURY/LIMOUSINE,40.753913,-73.986417,12/04/2023,18:00:12,"(40.753913, -73.986417)"
B03365,WISE TRANSPORTATION CORP,3479475454,No,34-18,NORTHERN BOULEVARD  SUITE 344,LONGISLAND CITY,NY,11101,BLACK CAR BASE,40.7517583,-73.929177,12/04/2023,18:00:12,"(40.7517583, -73.929177)"
B03420,TADA USA INC.,7185395680,No,152-53,10 AVENUE  SUITE 210,WHITESTONE,NY,11357,BLACK CAR BASE,40.7935596,-73.8083166,12/04/2023,18:00:12,"(40.7935596, -73.8083166)"
B02424,FRIENDLY RIDE INC,7185455466,No,32-72,GALE AVENUE,LIC,NY,11101,LUXURY/LIMOUSINE,40.619641,-73.737598,12/04/2023,18:00:12,"(40.619641, -73.737598)"
B00222,"REYNO CAR SVC, INC.",2129236800,Yes,609,W 175TH STREET,NEW YORK,NY,10033,LIVERY BASE,40.844996,-73.9348,12/04/2023,18:00:12,"(40.844996, -73.9348)"
B01079,THE METRO MARINE CAR SERVICE INC,7187455555,No,9425,5 AVENUE,BROOKLYN,NY,11209,LIVERY BASE,40.618621,-74.030267,12/04/2023,18:00:12,"(40.618621, -74.030267)"
B02770,"CAVALIER CAR & LIMOUSINE, INC.",7184542900,No,185-08,UNION TURNPIKE,FRESH MEADOWS,NY,11366,BLACK CAR BASE,40.728365,-73.78328,12/04/2023,18:00:12,"(40.728365, -73.78328)"
B03127,ULTIMATE BLACK CAR CORP.,9174125000,No,2296,SECOND AVENUE,NEW YORK,NY,10035,BLACK CAR BASE,40.7980978,-73.9366176,12/04/2023,18:00:12,"(40.7980978, -73.9366176)"
B02912,FIRST CLASS LUXURY INC,2123040452,No,4980,BROADWAY,NEW YORK,NY,10034,BLACK CAR BASE,40.868198,-73.91923,12/04/2023,18:00:12,"(40.868198, -73.91923)"
B02096,"CET GROUP, INC",2129650889,No,47,LUDLOW STREET,NEW YORK,NY,10002,BLACK CAR BASE,40.71642,-73.99046,12/04/2023,18:00:12,"(40.71642, -73.99046)"
B01336,BAY EXPRESS CORP.,7182323434,No,2134,86 STREET,BROOKLYN,NY,11214,LIVERY BASE,40.602225,-73.99315,12/04/2023,18:00:12,"(40.602225, -73.99315)"
B02256,"EUROPE LIMOUSINE SERVICE, INC.",2014773200,No,24,FARVIEW TERRACE,PARAMUS,NJ,07652,BLACK CAR BASE,40.922042,-74.069773,12/04/2023,18:00:12,"(40.922042, -74.069773)"
B03426,CONCINNITY TRANSPORTATION GROUP INC,9179169289,No,3370,PRINCE STREET  202,FLUSHING,NY,11354,BLACK CAR BASE,40.7646429,-73.8336861,12/04/2023,18:00:12,"(40.7646429, -73.8336861)"
B01678,"G.T.N.Y. CAR SERVICE, INC.",2123042222,Yes,2320,HUGHES AVENUE,BRONX,NY,10458,LIVERY BASE,40.864581,-73.92253,12/04/2023,18:00:12,"(40.864581, -73.92253)"
B03363,RAIN SOLUTION INC,6463967060,No,73,MARKET STREET 3FL.  STE 376,YONKERS,NY,10710,BLACK CAR BASE,40.9629015,-73.8565801,12/04/2023,18:00:12,"(40.9629015, -73.8565801)"
B02832,NYC FLY WHEELS INC.,7184231111,No,208-01,NORTHERN BOULEVARD  SUITE #4B,BAYSIDE,NY,11361,LIVERY BASE,40.759035,-73.775438,12/04/2023,18:00:12,"(40.759035, -73.775438)"
B03440,METRO CAR SERVICE CORP.,7183847777,No,180,KNICKERBOCKER AVENUE,BROOKLYN,NY,11237,BLACK CAR BASE,40.7109081,-73.9450392,12/04/2023,18:00:12,"(40.7109081, -73.9450392)"
B01717,HIGH CLASS BRONX LIMO C/S CORP,7189331111,No,2269,HAMPDEN PLACE,BRONX,NY,10468,LIVERY BASE,40.861378,-73.91125,12/04/2023,18:00:12,"(40.861378, -73.91125)"
B03349,RIDGEWAY TRANSIT INC,7187484444,No,6809,3 AVENUE,BROOKLYN,NY,11220,BLACK CAR BASE,40.6361246,-74.0257149,12/04/2023,18:00:12,"(40.6361246, -74.0257149)"
B03281,JARPA TRANSPORTATION CORP.,7186350047,No,2825,THIRD AVENUE  SUITE 301,BRONX,NY,10455,BLACK CAR BASE,40.8158019,-73.9184149,12/04/2023,18:00:12,"(40.8158019, -73.9184149)"
B01777,PREMIUM RADIO DISP & MULTI SVC,2126942222,Yes,425,EDGECOMBE AVENUE,NEW YORK,NY,10032,LIVERY BASE,40.82983,-73.94008,12/04/2023,18:00:12,"(40.82983, -73.94008)"
B00860,SEAMAN RADIO DISPATCHERS INC,2123043612,Yes,4020,10 AVENUE,NEW YORK,NY,10034,LIVERY BASE,40.869265,-73.91584,12/04/2023,18:00:12,"(40.869265, -73.91584)"
B02535,LFS LIMO CORP.,6317767786,No,1225,FRANKLIN AVE  SUITE 325,GARDEN CITY,NY,11530,LUXURY/LIMOUSINE,40.773186,-73.038617,12/04/2023,18:00:12,"(40.773186, -73.038617)"
B03482,BUSHWICK CAR SERVICE BLACK INC.,7183865002,No,180,KNICKERBOCKER AVENUE,BROOKLYN,NY,11237,BLACK CAR BASE,40.7037157,-73.9274817,12/04/2023,18:00:12,"(40.7037157, -73.9274817)"
B80271,FLUSHING COMMUTER VAN MANAGEMENT CORP,7189393699,No,136-31,41 AVENUE,FLUSHING,NY,11355,COMMUTER VAN AUTHORITY BASE,40.7590233,-73.8284639,12/04/2023,18:00:12,"(40.7590233, -73.8284639)"
B02892,SEAMAN EXPRESS CORP.,6469644686,No,4020,10 AVENUE,NEW YORK,NY,10034,BLACK CAR BASE,40.869265,-73.91584,12/04/2023,18:00:12,"(40.869265, -73.91584)"
B01367,"ROYAL DISPATCH SERVICES, INC.",7187062200,No,32-72,GALE AVENUE,LIC,NY,11101,BLACK CAR BASE,40.744528,-73.92606,12/04/2023,18:00:12,"(40.744528, -73.92606)"
B02026,A RIDE FOR ALL LLC,7187067433,No,36-31,10TH STREET,LIC,NY,11106,LIVERY BASE,40.760313,-73.9412,12/04/2023,18:00:12,"(40.760313, -73.9412)"
B03430,G-4 CAR SERVICE INC,3477219836,No,909,THIRD AVENUE  #66,NEW YORK,NY,10150,BLACK CAR BASE,40.7583005,-73.9679009,12/04/2023,18:00:12,"(40.7583005, -73.9679009)"
B00608,SUMMIT CORPORATE CAR INC.,7189727770,No,41-24,38TH STREET,L.I.C.,NY,11101,BLACK CAR BASE,40.638477,-73.983333,12/04/2023,18:00:12,"(40.638477, -73.983333)"
B03327,DAHLIA TRANSPORTATION CORP.,3472977665,No,2322,ARTHUR AVENUE  #210,BRONX,NY,10458,BLACK CAR BASE,40.8538364,-73.8888478,12/04/2023,18:00:12,"(40.8538364, -73.8888478)"
B03258,CHERRY TRANSPORTATION NY INC.,7183330404,No,45-55,162ND STREET  1ST FL.,FLUSHING,NY,11358,BLACK CAR BASE,40.754798,-73.8044538,12/04/2023,18:00:12,"(40.754798, -73.8044538)"
B03304,ADRIS TRANSPORTATION INC,7187342771,No,73,MARKET STREET  3RD FLOOR,YONKERS,NY,10710,BLACK CAR BASE,40.9629015,-73.8565801,12/04/2023,18:00:12,"(40.9629015, -73.8565801)"
B02846,DLS TRANSPORTATION CORP.,7182850357,No,914,SOUNDVIEW AVENUE  2ND FL,BRONX,NY,10473,BLACK CAR BASE,40.823574,-73.867859,12/04/2023,18:00:12,"(40.823574, -73.867859)"
B01338,3210 WEBSTER AV PRESTIGE C/S,7187987700,No,3108,WEBSTER AVENUE,BRONX,NY,10467,LIVERY BASE,40.871011,-73.87645,12/04/2023,18:00:12,"(40.871011, -73.87645)"
B03358,GOLDEN ONE TRANSPORTATION INC.,3475069891,No,87-78,169 STREET,JAMAICA,NY,11432,BLACK CAR BASE,40.7101523,-73.7928657,12/04/2023,18:00:12,"(40.7101523, -73.7928657)"
B03113,MIKE'S VIP TRANSPORTATION INC.,7186994322,No,8652,WOODHAVEN BLVD,WOODHAVEN,NY,11421,BLACK CAR BASE,40.6939553,-73.8528373,12/04/2023,18:00:12,"(40.6939553, -73.8528373)"
B03142,"COOL WAY TECHNOLOGY, INC.",7182477277,No,300,CADMAN PLAZA WEST  12 FL,BROOKLYN,NY,11201,BLACK CAR BASE,40.6950802,-73.9911994,12/04/2023,18:00:12,"(40.6950802, -73.9911994)"
B03469,BINGO TRANSIT INC,9172172897,No,74,OLD FARM ROAD,LEVITTOWN,NY,11756,BLACK CAR BASE,40.7325432,-73.5323959,12/04/2023,18:00:12,"(40.7325432, -73.5323959)"
B02811,M.L TRIPS CORP.,7183884242,No,141,MAUJER STREET,BROOKLYN,NY,11206,BLACK CAR BASE,40.713899,-73.95531,12/04/2023,18:00:12,"(40.713899, -73.95531)"
B01362,AMERICAN BASE NO.1 INC.,7186656664,No,3077,3RD AVENUE,BRONX,NY,10451,LIVERY BASE,40.814476,-73.914387,12/04/2023,18:00:12,"(40.814476, -73.914387)"
B01339,R C AUDUBON SVC INC,2129238787,Yes,2224,AMSTERDAM AVENUE,NEW YORK,NY,10032,LIVERY BASE,40.838228,-73.937654,12/04/2023,18:00:12,"(40.838228, -73.937654)"
B02794,ASAP LUXE INC,7183630046,No,1304,UTICA AVENUE,BROOKLYN,NY,11203,BLACK CAR BASE,40.640752,-73.92954,12/04/2023,18:00:12,"(40.640752, -73.92954)"
B03235,ALIANZA TRANSPORTATION SERVICE INC.,7186180892,No,2488,GRAND CONCOURSE  SUITE #304,BRONX,NY,10458,BLACK CAR BASE,40.8620886,-73.8969582,12/04/2023,18:00:12,"(40.8620886, -73.8969582)"
B03374,1ST SELECTION CAR SERVICE INC.,7163714507,No,206,SARATOGA AVENUE 1ST FLOO,YONKERS,NY,10705,BLACK CAR BASE,40.9109416,-73.8926219,12/04/2023,18:00:12,"(40.9109416, -73.8926219)"
B02573,SUNSET PARK CAR SERVICE INC,7184386262,No,4409,5 AVENUE,BROOKLYN,NY,11220,LIVERY BASE,40.64816,-74.00679,12/04/2023,18:00:12,"(40.64816, -74.00679)"
B03435,AJC CAR SERVICE CORPORATION,9295017377,No,3418,NORTHERN BOULEVARD  VO2,L.I.C.,NY,11101,BLACK CAR BASE,40.7517583,-73.929177,12/04/2023,18:00:12,"(40.7517583, -73.929177)"
B03290,VOCES TRANSPORTATION MANAGEMENT CORP,7182857501,No,34-18,NORTHERN BOULEVARD,LIC,NY,11101,BLACK CAR BASE,40.7517583,-73.929177,12/04/2023,18:00:12,"(40.7517583, -73.929177)"
B03522,786 LIMO SERVICES WORLDWIDE INC,7186889321,No,1225,FRANKLIN AVENUE  325,GARDEN CITY,NY,11530,LUXURY/LIMOUSINE,40.7340743,-73.6354595,12/04/2023,18:00:12,"(40.7340743, -73.6354595)"
B01614,R TRANSPORT INC,7188593400,Yes,1021,AVENUE H,BROOKLYN,NY,11230,LIVERY BASE,40.629493,-73.96644,12/04/2023,18:00:12,"(40.629493, -73.96644)"
B03265,"TIJUANA CAR SERVICE NO. 1, INC",9173978085,No,253B,NEW DORP LANE,STATEN ISLAND,NY,10306,LIVERY BASE,40.5728626,-74.1137062,12/04/2023,18:00:12,"(40.5728626, -74.1137062)"
B02037,KINGSDALE DISPATCH INC,7187962222,No,3265,JOHNSON AVENUE,BRONX,NY,10463,LIVERY BASE,40.880379,-73.911322,12/04/2023,18:00:12,"(40.880379, -73.911322)"
B03097,AERO LIMO INC,9175358712,No,53-12,104TH STREET,CORONA,NY,11368,BLACK CAR BASE,40.7411816,-73.8566502,12/04/2023,18:00:12,"(40.7411816, -73.8566502)"
B90522,UNIVERSAL CARRIER INC.,7186464444,No,1805,GRAVESEND NECK ROAD  2ND FLR,BROOKLYN,NY,11229,PARATRANSIT BASE,40.59599,-73.952765,12/04/2023,18:00:12,"(40.59599, -73.952765)"
B03521,FIRST OCEANA BLACK CAR INC.,7183751001,No,2395,CONEY ISLAND AVENUE,BROOKLYN,NY,11223,BLACK CAR BASE,40.598607,-73.9609532,12/04/2023,18:00:12,"(40.598607, -73.9609532)"
B02942,FANNY RADIO DISPATCHER SERVICE INC.,7186414444,No,129 - 02,LIBERTY AVENUE  SUITE #6,RICHMOND HILL,NY,11419,BLACK CAR BASE,40.6891158,-73.8160429,12/04/2023,18:00:12,"(40.6891158, -73.8160429)"
B02795,LIMO SEVEN TRANSPORTATION INC,6464625191,No,635,EAST    5 STREET  FIRST FLOOR,BROOKLYN,NY,11218,BLACK CAR BASE,40.641301,-73.98238,12/04/2023,18:00:12,"(40.641301, -73.98238)"
B02803,OUTSIDE'S CAR SERVICE INC.,6463637027,No,1975,LAFONTAINE AVENUE,BRONX,NY,10457,LIVERY BASE,40.846957,-73.894439,12/04/2023,18:00:12,"(40.846957, -73.894439)"
B03367,SHOW LIMO CORP.,7182606666,No,161,BRIGHTON   11 STREET,BROOKLYN,NY,11235,BLACK CAR BASE,40.578494,-73.9585348,12/04/2023,18:00:12,"(40.578494, -73.9585348)"
B02520,AMK LUXURY CAR & LIMO INC.,2122810059,No,20,15 STREET  SUITE 207,BROOKLYN,NY,11215,BLACK CAR BASE,40.634763,-73.935362,12/04/2023,18:00:12,"(40.634763, -73.935362)"
B03387,SHALOM EXPRESS CORP,7184372444,No,1201,39 STREET,BROOKLYN,NY,11218,BLACK CAR BASE,40.6419746,-73.9882753,12/04/2023,18:00:12,"(40.6419746, -73.9882753)"
B02838,THA MAYA CAR SERVICE INC,9175645451,No,6121,17 AVENUE,BROOKLYN,NY,11204,BLACK CAR BASE,40.622281,-73.99041,12/04/2023,18:00:12,"(40.622281, -73.99041)"
B02522,CHAUFFEURED EXECUTIVE TRANSPORTATION LLC,7188464455,No,86-11,LEFFERTS BOULEVARD  CELLAR FLOOR,RICHMOND HILL,NY,11418,LUXURY/LIMOUSINE,40.695811,-73.827203,12/04/2023,18:00:12,"(40.695811, -73.827203)"
B02301,DOUBLE A CAR SERVICE INC.,7187206666,No,1,FERRY TERMINAL DRIVE,STATEN ISLAND,NY,10301,LIVERY BASE,40.64309,-74.075357,12/04/2023,18:00:12,"(40.64309, -74.075357)"
B02868,CHA CHA TRANSPORTATION CORP,7186830246,No,35 - 30,154 STREET  2ND FLOOR,FLUSHING,NY,11354,BLACK CAR BASE,40.739075,-73.787622,12/04/2023,18:00:12,"(40.739075, -73.787622)"
B90496,ASCONA AMBLT SVC INC,7186461611,No,2421,BATH AVENUE,BROOKLYN,NY,11214,PARATRANSIT BASE,40.595422,-73.992368,12/04/2023,18:00:12,"(40.595422, -73.992368)"
B03236,AGUILA CAR & LIMO CORPORATION,7183933333,No,51-47,69TH STREET,WOODSIDE,NY,11377,BLACK CAR BASE,40.7338321,-73.8956614,12/04/2023,18:00:12,"(40.7338321, -73.8956614)"
B02594,FENIX MOBILE DISPATCHERS LTD,7188212900,No,586,SENECA AVE  1,RIDGEWOOD,NY,11385,LIVERY BASE,40.704224,-73.9103,12/04/2023,18:00:12,"(40.704224, -73.9103)"
B02133,"TWR CAR & LIMO, INC.",7186432200,No,241,37TH STREET  STE# 1-4-B460,BROOKLYN,NY,11232,BLACK CAR BASE,40.678782,-73.989979,12/04/2023,18:00:12,"(40.678782, -73.989979)"
B03042,BAYRIDGE EXPRESS LUXYRY INC,7182383000,No,377,BAYRIDGE AVENUE,BROOKLYN,NY,11220,BLACK CAR BASE,40.7101523,-73.7928657,12/04/2023,18:00:12,"(40.7101523, -73.7928657)"
B03422,CTG LOGISTICS INC.,9176672847,No,241,37TH STREET,BROOKLYN,NY,11232,BLACK CAR BASE,40.6787845,-73.9899849,12/04/2023,18:00:12,"(40.6787845, -73.9899849)"
B03433,STATUS RIDE LLC,3476564141,No,638,EDWARD TERRACE,WEST HEMPSTEAD,NY,11552,LUXURY/LIMOUSINE,40.695157,-73.66668,12/04/2023,18:00:12,"(40.695157, -73.66668)"
B02162,A B C SHUTTLE SERVICES CORPORATION,7183227777,No,141-36,ROCKAWAY BOULEVARD,SOUTH OZONE PK,NY,11436,LIVERY BASE,40.67387,-73.79852,12/04/2023,18:00:12,"(40.67387, -73.79852)"
B03177,BERNICE SERVICES INC,7185748888,No,252,JAVA STREET  UNIT 101,BROOKLYN,NY,11222,BLACK CAR BASE,40.7316899,-73.9499074,12/04/2023,18:00:12,"(40.7316899, -73.9499074)"
B01145,ULTRA RADIO DISP INC,7189928000,No,277,EAST  165 STREET,BRONX,NY,10456,LIVERY BASE,40.82939,-73.91607,12/04/2023,18:00:12,"(40.82939, -73.91607)"
B03424,LILIAS LUXURY CORP,7185777471,No,295,KNICKERBOCKER AVENUE,BROOKLYN,NY,11237,BLACK CAR BASE,40.7018978,-73.9234287,12/04/2023,18:00:12,"(40.7018978, -73.9234287)"
B00625,"CENTRAL CAR SERVICES,INC.",7183354141,No,94-12,ASTORIA BOULEVARD,EAST ELMHURST,NY,11369,LIVERY BASE,40.762639,-73.874743,12/04/2023,18:00:12,"(40.762639, -73.874743)"
B02784,SMILE TRANSPORTATION GROUP INC,7189425566,No,945,EAST 108TH STREET  SUITE B101,BROOKLYN,NY,11236,BLACK CAR BASE,40.641403,-73.91821,12/04/2023,18:00:12,"(40.641403, -73.91821)"
B02408,"PETER EXECUTIVE LIMOUSINE, CORP",7187847900,No,34-39,31 STREET,ASTORIA,NY,11106,BLACK CAR BASE,40.758334,-73.92795,12/04/2023,18:00:12,"(40.758334, -73.92795)"
B03226,PAXXIA LUXURY CORP.,9292074747,No,541,KINGSTON AVENUE,BROOKLYN,NY,11225,BLACK CAR BASE,40.7101523,-73.7928657,12/04/2023,18:00:12,"(40.7101523, -73.7928657)"
B03443,SILK ROAD LIMOUSINE LLC,3477592346,No,2348,LANCASTER AVE,EAST MEADOW,NY,11554,LUXURY/LIMOUSINE,40.7177055,-73.5550325,12/04/2023,18:00:12,"(40.7177055, -73.5550325)"
B00412,NYC 2 WAY INTERNATIONAL LTD,7186433900,No,241,37TH STREET  STE#1-4-B443,BROOKLYN,NY,11232,BLACK CAR BASE,40.678782,-73.98998,12/04/2023,18:00:12,"(40.678782, -73.98998)"
B02997,KALUMA TRANSPORTATION GROUP INC.,7185482222,No,3107,KINGSBRIDGE AVENUE,BRONX,NY,10463,BLACK CAR BASE,40.8803202,-73.9066749,12/04/2023,18:00:12,"(40.8803202, -73.9066749)"
B02657,MALCOLM LIMO EXPRESS CORP.,2126904000,Yes,2548,8 AVENUE,NEW YORK,NY,10030,LIVERY BASE,40.816919,-73.94591,12/04/2023,18:00:12,"(40.816919, -73.94591)"
B03295,NEW CENTURY CAR SERVICE CORP,8008294782,No,917,OGDEN AVENUE,BRONX,NY,10452,BLACK CAR BASE,40.8312247,-73.9306498,12/04/2023,18:00:12,"(40.8312247, -73.9306498)"
B03286,"MITA LIMOUSINE, INC.",2126793939,No,208,WEST 29TH ST.  #203,NEW YORK,NY,10001,BLACK CAR BASE,40.7478238,-73.9936274,12/04/2023,18:00:12,"(40.7478238, -73.9936274)"
B01482,SHORE TRANSPORTATION INC,7186466666,No,3173,CONEY ISLAND AVENUE,BROOKLYN,NY,11235,LIVERY BASE,40.57861,-73.95948,12/04/2023,18:00:12,"(40.57861, -73.95948)"
B02944,SCORPIO FIVE STAR CAR & LIMO SERVICE INC,9176839470,No,127-19,ROCKAWAY BOULEVARD,SOUTH OZONE PAR,NY,11420,BLACK CAR BASE,40.675409,-73.810012,12/04/2023,18:00:12,"(40.675409, -73.810012)"
B01016,810 CAR SVCE CORP,7182353480,No,2672,PITKIN AVENUE,BROOKLYN,NY,11208,LIVERY BASE,40.674932,-73.87351,12/04/2023,18:00:12,"(40.674932, -73.87351)"
B02536,SEAGULL RIDE CORP,7187033333,No,2692,CONEY ISLAND AVENUE,BROOKLYN,NY,11235,LIVERY BASE,40.59092,-73.961,12/04/2023,18:00:12,"(40.59092, -73.961)"
B03413,WAV TRANSPORTATION GROUP LTD,7188664108,No,336,KINGS HWY,BROOKLYN,NY,11223,BLACK CAR BASE,40.7101523,-73.7928657,12/04/2023,18:00:12,"(40.7101523, -73.7928657)"
B03204,EXTRA CAR SERVICE LLC,7186841379,No,1041A,CASTLE HILL AVENUE,BRONX,NY,10472,BLACK CAR BASE,40.7101523,-73.7928657,12/04/2023,18:00:12,"(40.7101523, -73.7928657)"
B80276,GOGO BUS TOURS INC,9178071358,No,4315,8 AVENUE,BROOKLYN,NY,11232,COMMUTER VAN AUTHORITY BASE,40.644539,-73.9997394,12/04/2023,18:00:12,"(40.644539, -73.9997394)"
B01259,THE NEW BROOKLYN C/S INC,7183882828,No,390,BROADWAY  1FL,BROOKLYN,NY,11211,LIVERY BASE,40.709336,-73.95656,12/04/2023,18:00:12,"(40.709336, -73.95656)"
B00375,THE EXCELLENT C/S INC,7187317777,Yes,144,EAST  174 STREET,BRONX,NY,10457,LIVERY BASE,40.844708,-73.90983,12/04/2023,18:00:12,"(40.844708, -73.90983)"
B02751,RELIANCE GROUP INC,7188509100,No,148-09,LIBERTY AVENUE,JAMAICA,NY,11435,LUXURY/LIMOUSINE,40.728434,-73.78331,12/04/2023,18:00:12,"(40.728434, -73.78331)"
B01639,HIGH CLASS LIMO CAR SVCE CORP,2129261021,No,1700,JEROME AVE,BRONX,NY,10453,LIVERY BASE,40.834828,-73.945041,12/04/2023,18:00:12,"(40.834828, -73.945041)"
B01600,R & N CAR SERVICE INC.,7186582233,No,179-36,HILLSIDE AVENUE,JAMAICA,NY,11432,LIVERY BASE,40.712662,-73.78303,12/04/2023,18:00:12,"(40.712662, -73.78303)"
B00937,RIVERSIDE RADIO DISPATCHER,2129231111,Yes,1642,ST NICHOLAS AVENUE,NEW YORK,NY,10040,LIVERY BASE,40.856313,-73.928389,12/04/2023,18:00:12,"(40.856313, -73.928389)"
B03492,MARINA CAR SERVICE INC,7186222222,No,9425,5 AVENUE,BROOKLYN,NY,11209,BLACK CAR BASE,40.6158579,-74.03069,12/04/2023,18:00:12,"(40.6158579, -74.03069)"
B03144,JUST A MOMENT CAR SERVICE INC,6463793071,No,3100,47 AVENUE  STE 3100,LIC,NY,11101,BLACK CAR BASE,40.7427791,-73.9353777,12/04/2023,18:00:12,"(40.7427791, -73.9353777)"
B02634,VETERANS RADIO DISPATCHER CORP.,7183647878,No,131,KINGSBRIDGE ROAD,BRONX,NY,10468,LIVERY BASE,40.86927,-73.90281,12/04/2023,18:00:12,"(40.86927, -73.90281)"
B90419,D & J SERVICES INC,7188288888,No,1200,ZEREGA AVENUE,BRONX,NY,10462,PARATRANSIT BASE,40.833354,-73.843531,12/04/2023,18:00:12,"(40.833354, -73.843531)"
B03308,B.S.Z. LUXURY BLACK CAR INC.,7184008338,No,80-06,101 AVENUE,OZONE PARK,NY,11416,BLACK CAR BASE,40.6805733,-73.8584575,12/04/2023,18:00:12,"(40.6805733, -73.8584575)"
B01288,NEW ELEGANTE CAR SVC INC,7183283333,No,1804,RANDALL AVENUE,BRONX,NY,10473,LIVERY BASE,40.816803,-73.862557,12/04/2023,18:00:12,"(40.816803, -73.862557)"
B02898,SANO CAR LLC,2125675009,No,5030,BROADWAY  SUITE 676,NEW YORK,NY,10034,BLACK CAR BASE,40.86885,-73.91664,12/04/2023,18:00:12,"(40.86885, -73.91664)"
B03447,HELP TRANSPORTATION GROUP LLC,9174718630,No,1231,LAFAYETTE AVENUE  SUIT L2,BRONX,NY,10474,BLACK CAR BASE,40.8319722,-73.8905847,12/04/2023,18:00:12,"(40.8319722, -73.8905847)"
B00255,CAUTIOUS CARS CORP,7182963333,No,76-19,ROCKAWAY BOULEVARD,WOODHAVEN,NY,11421,LIVERY BASE,40.685534,-73.86372,12/04/2023,18:00:12,"(40.685534, -73.86372)"
B01236,BLS LIMO SVC OF NY INC,7182675426,No,18-20,STEINWAY STREET,ASTORIA,NY,11105,LUXURY/LIMOUSINE,40.779966,-73.898038,12/04/2023,18:00:12,"(40.779966, -73.898038)"
B03028,CASTILLO CAR & LIMO INC,7184994545,No,440,4TH AVENUE,BROOKLYN,NY,11215,BLACK CAR BASE,40.6106051,-73.9545897,12/04/2023,18:00:12,"(40.6106051, -73.9545897)"
B02825,GUADALUPANA II CAR & LIMO INC,7186210404,No,6506,20 AVE,BROOKLYN,NY,11204,BLACK CAR BASE,40.616294,-73.98612,12/04/2023,18:00:12,"(40.616294, -73.98612)"
B02782,NEW APP CAR & LIMO INC,2122227999,No,908,AMSTERDAM AVENUE,NEW YORK,NY,10025,LIVERY BASE,40.79961,-73.96671,12/04/2023,18:00:12,"(40.79961, -73.96671)"
B02599,CMS LIMO INC.,8772675596,No,14,LYNCREST STREET,VALLEY STREAM,NY,11581,LUXURY/LIMOUSINE,40.765173,-73.88592,12/04/2023,18:00:12,"(40.765173, -73.88592)"
B02546,X RADIO DISPATCHER INC.,7183283434,No,1161,SOUTHERN BOULEVARD,BRONX,NY,10459,LIVERY BASE,40.828016,-73.892244,12/04/2023,18:00:12,"(40.828016, -73.892244)"
B01088,PAISA 2 CAR  AND LIMOUSINE SERVICE INC,7184787700,No,37-08,100TH STREET,CORONA,NY,11368,LIVERY BASE,40.738362,-73.895646,12/04/2023,18:00:12,"(40.738362, -73.895646)"
B03328,B-QUICK TRANSPORTATION CORP.,3473980856,No,3036,EAST TREMONT AVENUE  SUITE #202,BRONX,NY,10461,BLACK CAR BASE,40.8394692,-73.8371342,12/04/2023,18:00:12,"(40.8394692, -73.8371342)"
B01280,BENSONHURST RIDE INC.,7189461111,No,2134,86 STREET,BROOKLYN,NY,11214,LIVERY BASE,40.602721,-73.99516,12/04/2023,18:00:12,"(40.602721, -73.99516)"
B00054,128 BLUE BIRD TRANSPORT INC.,7185297748,No,111-05,128 STREET,OZONE PARK,NY,11420,LIVERY BASE,40.683921,-73.813971,12/04/2023,18:00:12,"(40.683921, -73.813971)"
B03176,BEE BEE LUXURY SERVICE INC.,7863262425,No,663,BLAKE AVENUE,BROOKLYN,NY,11207,BLACK CAR BASE,40.6681253,-73.8941706,12/04/2023,18:00:12,"(40.6681253, -73.8941706)"
B03448,MCF TRANSPORTATION LLC,3472815730,No,54-14,74TH STREET  SUITE 5511,ELMHURST,NY,11373,BLACK CAR BASE,40.8439899,-73.8291011,12/04/2023,18:00:12,"(40.8439899, -73.8291011)"
B03425,BLACK CAR CHAUFFEUR SERVICE INC,5167329497,No,6800,JERICHO TPKE #W120,SYOSSET,NY,11791,LUXURY/LIMOUSINE,40.8062356,-73.5185566,12/04/2023,18:00:12,"(40.8062356, -73.5185566)"
B01877,U.S.A. LIMO. INC.,7189444919,No,41 - 24,38 STREET,LIC,NY,11101,LUXURY/LIMOUSINE,40.638477,-73.983333,12/04/2023,18:00:12,"(40.638477, -73.983333)"
B01436,NEW PRONTO TRANSP INC,7184575777,Yes,41-09,49 STREET,L.I.C.,NY,11104,LIVERY BASE,40.746164,-73.91524,12/04/2023,18:00:12,"(40.746164, -73.91524)"
B02797,CJ LIMOUSINE LLC,2012425466,No,1605,JOHN STREET  SUITE 201,FORT LEE,NJ,07024,BLACK CAR BASE,40.854042,-73.979192,12/04/2023,18:00:12,"(40.854042, -73.979192)"
B02360,BRIDGES LIMOUSINE INC,7187775743,No,35-28,19 AVENUE,ASTORIA,NY,11105,BLACK CAR BASE,40.779639,-73.901658,12/04/2023,18:00:12,"(40.779639, -73.901658)"
B03474,MAGNOLIA TRANSPORT INC,5163950720,No,26,ERNST AVE,HICKSVILLE,NY,11801,LUXURY/LIMOUSINE,40.7611499,-73.515004,12/04/2023,18:00:12,"(40.7611499, -73.515004)"
B03507,GOLDEN BIRD LIMOUSINES LLC,9179836220,No,103,N. MAIN STREET,ISELIN,NJ,08830,LUXURY/LIMOUSINE,40.5744524,-74.3170096,12/04/2023,18:00:12,"(40.5744524, -74.3170096)"
B03126,YUR DRIVERS NETWORK INC,2019875702,No,151,WEST PASSAIC ST  2ND FL,ROCHELLE PARK,NJ,07662,BLACK CAR BASE,40.9125403,-74.0785644,12/04/2023,18:00:12,"(40.9125403, -74.0785644)"
B03171,HIGHLAND TRANSPORTATION MANAGEMENT CORP.,7182712700,No,34-18,NORTHERN BOULEVARD,LIC,NY,11101,BLACK CAR BASE,40.7517583,-73.929177,12/04/2023,18:00:12,"(40.7517583, -73.929177)"
B02899,NEW BLACK LUXURY CARS CORP,7183887777,No,390,BROADWAY,BROOKLYN,NY,11211,BLACK CAR BASE,40.707063,-73.95449,12/04/2023,18:00:12,"(40.707063, -73.95449)"
B00823,"EASTERN L.P.B.,INC.",7184996227,No,222,15 STREET,BROOKLYN,NY,11215,LIVERY BASE,40.665361,-73.98917,12/04/2023,18:00:12,"(40.665361, -73.98917)"
B03320,LIMOLINK INCORPORATED,3197302100,No,3375,ARMAR DRIVE,MARION,IA,52302,LUXURY/LIMOUSINE,42.0282223,-91.6150655,12/04/2023,18:00:12,"(42.0282223, -91.6150655)"
B02918,LEOPARD INC,7183884488,No,670,FLUSHING AVE  #221,BROOKLYN,NY,11206,BLACK CAR BASE,40.711065,-73.94753,12/04/2023,18:00:12,"(40.711065, -73.94753)"
B03515,CHAPENCITY LIMO INC.,7183066262,No,8758,BAY   16 STREET,BROOKLYN,NY,11214,BLACK CAR BASE,40.6049965,-74.0075516,12/04/2023,18:00:12,"(40.6049965, -74.0075516)"
B03050,"TORINKO NY, LLC",2125186584,No,150,GREEN STREET,VALLEY STREAM,NY,11580,BLACK CAR BASE,40.667703,-73.7239409,12/04/2023,18:00:12,"(40.667703, -73.7239409)"
B02303,MINEOLA TRANSPORTATION INC.,9178595195,No,1267,ATLANTIC AVENUE,BROOKLYN,NY,11216,BLACK CAR BASE,40.678709,-73.948652,12/04/2023,18:00:12,"(40.678709, -73.948652)"
B02027,"PARIS LIMOUSINE SERVICE, CORP",7183961100,No,37-21,VERNON BOULEVARD,LIC,NY,11101,LUXURY/LIMOUSINE,40.759847,-73.943275,12/04/2023,18:00:12,"(40.759847, -73.943275)"
B02711,TRANS CITY TRANSPORTATION INC,2125050900,No,43 - 23,35 STREET,LIC,NY,11101,BLACK CAR BASE,40.713758,-73.75641,12/04/2023,18:00:12,"(40.713758, -73.75641)"
B01417,NESHER EXPRESS CAR SERVICE 2 INC.,7188716800,No,2300 WEST,7TH STREET,BROOKLYN,NY,11223,LIVERY BASE,40.634321,-73.992234,12/04/2023,18:00:12,"(40.634321, -73.992234)"
B01455,REPUBLICA CAR & LIMO SERVICE CORP.,7182716666,Yes,93-04,CORONA AVENUE,ELMHURST,NY,11373,LIVERY BASE,40.742387,-73.871082,12/04/2023,18:00:12,"(40.742387, -73.871082)"
B02021,EASYRIDE CAR SERVICE INC.,7184445557,No,2982,NOSTRAND AVENUE,BROOKLYN,NY,11229,LIVERY BASE,40.611528,-73.944318,12/04/2023,18:00:12,"(40.611528, -73.944318)"
B03293,A & Z LUXURY LIMOUSINE TRANSPORATION INC.,8008286140,No,21-03,44 AVENUE  SUITE 201,L.I.C.,NY,11101,BLACK CAR BASE,40.7517583,-73.929177,12/04/2023,18:00:12,"(40.7517583, -73.929177)"
B03018,AUREUS LLC,9178872105,No,240,KENT AVENUE,BROOKLYN,NY,11249,BLACK CAR BASE,40.7168599,-73.9656726,12/04/2023,18:00:12,"(40.7168599, -73.9656726)"
B02287,ROAD NEW YORK ENTERPRISES INC.,9293541387,No,132 - 02,89TH AVENUE  SUITE #209,RICHMOND HILL,NY,11418,LUXURY/LIMOUSINE,40.746232,-73.942696,12/04/2023,18:00:12,"(40.746232, -73.942696)"
B03369,VIDA CAR SERVICE INC,8576158729,No,416,EAST  176 STREET  STE 2E,BRONX,NY,10457,BLACK CAR BASE,40.846485,-73.9007558,12/04/2023,18:00:12,"(40.846485, -73.9007558)"
B01944,"DAG NETWORK TRANSPORTATION,CORP",2122791700,No,1204,CONEY ISLAND AVENUE,BROOKLYN,NY,11230,LUXURY/LIMOUSINE,40.628184,-73.966085,12/04/2023,18:00:12,"(40.628184, -73.966085)"
B02475,ECKFORD LITE CAR & LIMO INC.,3476129290,No,49-17A,69 STREET,WOODSIDE,NY,11377,BLACK CAR BASE,40.732487,-73.95427,12/04/2023,18:00:12,"(40.732487, -73.95427)"
B01364,NY ATLIXCO CAR SERVICE INC,7184245800,No,102-20,35 AVENUE,CORONA,NY,11368,LIVERY BASE,40.75458,-73.86581,12/04/2023,18:00:12,"(40.75458, -73.86581)"
B03396,ADAMES GROUP INC,6315074932,No,63,3RD AVE,LINDENHURST,NY,11757,BLACK CAR BASE,40.7101523,-73.7928657,12/04/2023,18:00:12,"(40.7101523, -73.7928657)"
B02566,GSL LIMOUSINES CORP.,7184724200,No,40-28,23 STREET,LIC,NY,11101,LUXURY/LIMOUSINE,40.742391,-73.957749,12/04/2023,18:00:12,"(40.742391, -73.957749)"
B02285,"VALERA GLOBAL, INC.",7184331111,No,1200,SHAMES DRIVE  UNIT D,WESTBURY,NY,11590,LUXURY/LIMOUSINE,40.740256,-73.952684,12/04/2023,18:00:12,"(40.740256, -73.952684)"
B01721,W.K. CAR & LIMO SERVICE INC,2122741166,No,1206,60TH STREET,BROOKLYN,NY,11219,LIVERY BASE,40.712007,-73.99515,12/04/2023,18:00:12,"(40.712007, -73.99515)"
B02677,"A.T.B. CAR AND LIMOUSINE SERVICE, INC.",7184854444,No,866,NEW LOTS AVENUE,BROOKLYN,NY,11208,LIVERY BASE,40.667838,-73.8788,12/04/2023,18:00:12,"(40.667838, -73.8788)"
B01843,"VINCENT'S LIMOUSINE SERVICE OF NEW YORK, INC.",7187290900,No,42-06,BROADWAY,ASTORIA,NY,11103,LUXURY/LIMOUSINE,40.757906,-73.917312,12/04/2023,18:00:12,"(40.757906, -73.917312)"
B00171,CURB TRANSPORTATION SERVICES LLC.,7182220600,No,11 - 11,34 AVENUE,LIC,NY,11106,LIVERY BASE,40.762829,-73.7718,12/04/2023,18:00:12,"(40.762829, -73.7718)"
B02735,"BEST DEAL CAR SERVICE 2,INC.",7183790009,No,2100,BARTOW AVENUE,BRONX,NY,10475,LIVERY BASE,40.868211,-73.82485,12/04/2023,18:00:12,"(40.868211, -73.82485)"
B03002,"REYNO,INC.",2129236800,No,609,W 175TH STREET,NEW YORK,NY,10033,BLACK CAR BASE,40.8457967,-73.937012,12/04/2023,18:00:12,"(40.8457967, -73.937012)"
B00948,510 CAR SERVICE CORP,7184857575,No,2225,PITKIN AVENUE,BROOKLYN,NY,11207,LIVERY BASE,40.672911,-73.890252,12/04/2023,18:00:12,"(40.672911, -73.890252)"
B02637,ROOSEVELT CAR & LIMO INC.,7187868888,No,3708,100TH STREET,CORONA,NY,11368,BLACK CAR BASE,40.754266,-73.919855,12/04/2023,18:00:12,"(40.754266, -73.919855)"
B01745,AZUAY CORPORATION,7187384994,Yes,96-04,LIBERTY AVE,QUEENS,NY,11417,LIVERY BASE,40.68254,-73.8359,12/04/2023,18:00:12,"(40.68254, -73.8359)"
B03485,A & B LIMO NY LLC,9293939969,No,82,WHALEY AVE,BETHPAGE,NY,11714,LUXURY/LIMOUSINE,40.7311846,-73.4823532,12/04/2023,18:00:12,"(40.7311846, -73.4823532)"
B01938,"ALL STAR LIMOUSINE SERVICE, LTD.",6317531234,No,380,NEW HWAY,LINDENHURST,NY,11757,LUXURY/LIMOUSINE,40.717012,-73.406118,12/04/2023,18:00:12,"(40.717012, -73.406118)"
B02833,ADVANCED LUXURY LIMO SVC. INC.,7182312188,No,3945,PROVOST AVENUE,BRONX,NY,10466,BLACK CAR BASE,40.833404,-73.84037,12/04/2023,18:00:12,"(40.833404, -73.84037)"
B03480,EZ DONE SERVICES CORP,8007691861,No,3418,NORTHERN BLVD  V05,LONGISLAND CITY,NY,11101,BLACK CAR BASE,40.7517583,-73.929177,12/04/2023,18:00:12,"(40.7517583, -73.929177)"
B01341,A NEW DAY RAD DISP INC,2122286666,No,84,CLINTON STREET,NEW YORK,NY,10002,LIVERY BASE,40.718549,-73.98515,12/04/2023,18:00:12,"(40.718549, -73.98515)"
B03529,NEW WILLIAMSBURG LUXURY CORP,7185610442,No,220,MARCUS GARVEY BOULEVARD,BROOKLYN,NY,11221,BLACK CAR BASE,40.6902799,-73.939661,12/04/2023,18:00:12,"(40.6902799, -73.939661)"
B03400,JNS & G TRANSPORTATION INC.,7183961749,No,94-19,ROOSEVELT AVENUVE,JACKSON HEIGHTS,NY,11372,BLACK CAR BASE,40.7101523,-73.7928657,12/04/2023,18:00:12,"(40.7101523, -73.7928657)"
B02248,HYBRID LIMO EXPRESS INC.,7186434600,No,241,37 STREET  STE#1-4-B460,BROOKLYN,NY,11232,BLACK CAR BASE,40.678782,-73.989979,12/04/2023,18:00:12,"(40.678782, -73.989979)"
B03092,USA LIMOUSINE SERVICE CORP,7185612872,No,520,WHITE PLAINS RD  SUITE 500,TARRY TOWN,NY,10591,BLACK CAR BASE,41.062651,-73.8405809,12/04/2023,18:00:12,"(41.062651, -73.8405809)"
B00170,EMUNAH CAR SERVICE INC,7189750909,No,1311,51 STREET,BROOKLYN,NY,11219,LIVERY BASE,40.633811,-73.992805,12/04/2023,18:00:12,"(40.633811, -73.992805)"
B03152,EXIT LUXURY INC.,7184729800,Yes,29 - 10,36 AVENUE,ASTORIA,NY,11106,BLACK CAR BASE,40.7570445,-73.9311832,12/04/2023,18:00:12,"(40.7570445, -73.9311832)"
B00446,COMMUNICAR INCORPORATED,7184181100,No,73-10,88 STREET,GLENDALE,NY,11385,BLACK CAR BASE,40.70868,-73.863547,12/04/2023,18:00:12,"(40.70868, -73.863547)"
B03303,MOTA LUXURY CORP.,9179942332,No,96-14,101 AVENUE,JAMAICA,NY,11416,BLACK CAR BASE,40.6845437,-73.8444022,12/04/2023,18:00:12,"(40.6845437, -73.8444022)"
B03302,TEST LX BASE,2126761000,Yes,33,BEAVER STREET  19TH FLOOR,NEW YORK,NY,10004,LUXURY/LIMOUSINE,40.7050651,-74.01179,12/04/2023,18:00:12,"(40.7050651, -74.01179)"
B01239,BEST DEAL PVT C/S INC,7187985555,No,757A,BURKE AVENUE,BRONX,NY,10467,LIVERY BASE,40.871551,-73.86485,12/04/2023,18:00:12,"(40.871551, -73.86485)"
B03479,ALL YOU NEED TRANSPORTATION CORP,9782301486,No,1768,EAST  172 STREET,BRONX,NY,10472,BLACK CAR BASE,40.8326359,-73.8681738,12/04/2023,18:00:12,"(40.8326359, -73.8681738)"
B02339,SEDANZ INC.,2123006083,No,14,HARWOOD COURT  SUITE #415,SCARSDALE,NY,10583,LUXURY/LIMOUSINE,40.776091,-73.89722,12/04/2023,18:00:12,"(40.776091, -73.89722)"
B03333,ABSOLUTE CAR SERVICE CORP.,7187929222,No,729,BURKE AVENUE  SUITE - A,BRONX,NY,10467,BLACK CAR BASE,40.8716488,-73.8656205,12/04/2023,18:00:12,"(40.8716488, -73.8656205)"
B03399,BLACKLANE NORTH AMERICA INC,2017773235,No,111,TOWN SQUARE PLACE  SUIT # 1203,JERSEY CITY,NJ,07310,LUXURY/LIMOUSINE,40.7262903,-74.0337489,12/04/2023,18:00:12,"(40.7262903, -74.0337489)"
B02724,"CORE CAR, INC",2033483199,No,30,COMMERCE ROAD,STAMFORD,CT,06902,LUXURY/LIMOUSINE,41.046382,-73.56163,12/04/2023,18:00:12,"(41.046382, -73.56163)"
B02901,GALLANT LUXURY SERVICE CORP.,2123040707,No,5030,BROADWAY  SUITE 804,NEW YORK,NY,10034,BLACK CAR BASE,40.86885,-73.91664,12/04/2023,18:00:12,"(40.86885, -73.91664)"
B03504,ABT CHAUFFEUR SERVICES LLC,2126319970,No,10,WEST   66 STREET,NEW YORK,NY,10023,LUXURY/LIMOUSINE,40.7101523,-73.7928657,12/04/2023,18:00:12,"(40.7101523, -73.7928657)"
B03368,BEST CHOICE CAR SERVIE CORPORATION,3474687823,No,7527,197 STREET  2ND FLOOR,FRESH MEADOWS,NY,11366,BLACK CAR BASE,40.7327926,-73.7735376,12/04/2023,18:00:12,"(40.7327926, -73.7735376)"
B03330,OSO AUTO CORP,3473276111,No,561,WEST  152 STREET,NEW YORK,NY,10031,BLACK CAR BASE,40.8307901,-73.9468348,12/04/2023,18:00:12,"(40.8307901, -73.9468348)"
B02839,YERUSHALAYIM CAR&LIMO INC,7183874900,No,343,ROEBLING STREET,BROOKLYN,NY,11211,LIVERY BASE,40.707303,-73.96101,12/04/2023,18:00:12,"(40.707303, -73.96101)"
B03022,BLACK CAR EXPRESS.COM CORP,5164720811,No,8,MAPLE ST  STE 4,PORT WASHINGTON,NY,11050,BLACK CAR BASE,40.8298877,-73.6847217,12/04/2023,18:00:12,"(40.8298877, -73.6847217)"
B01949,FIRST CLASS OF NEW YORK INC.,7186436053,No,241,37TH STEET,BROOKLYN,NY,11232,BLACK CAR BASE,40.678782,-73.989979,12/04/2023,18:00:12,"(40.678782, -73.989979)"
B02967,ABIEL TRANSPORTATION CORP,7187336000,No,261,EAST KINGSBRIDGE ROAD  N-46,BRONX,NY,10458,BLACK CAR BASE,40.863983,-73.89383,12/04/2023,18:00:12,"(40.863983, -73.89383)"
B00965,BEN JEVO MGT. INC.,7184422277,No,2,TOMPKINS AVENUE,STATEN ISLAND,NY,10304,LIVERY BASE,40.624172,-74.07967,12/04/2023,18:00:12,"(40.624172, -74.07967)"
B02060,AMERICAN LIMOUSINE LLC,2015293610,No,365,RIFLE CAMP ROAD  SUITE 202,WOODLAND PARK,NJ,07424,LUXURY/LIMOUSINE,41.083191,-74.149513,12/04/2023,18:00:12,"(41.083191, -74.149513)"
B01726,SUPER CLASS RADIO DISP INC,7183672222,Yes,1831,GRAND CONCOURSE,BRONX,NY,10453,LIVERY BASE,40.847759,-73.907886,12/04/2023,18:00:12,"(40.847759, -73.907886)"
B03225,ALCON EXPRESS INC,7185244121,No,1264,CASTLETON AVE,STATEN ISLAND,NY,10310,BLACK CAR BASE,40.6337961,-74.1248216,12/04/2023,18:00:12,"(40.6337961, -74.1248216)"
B03445,INWOOD CAR AND LIMO INC,2034479265,No,2320,HUGHES AVENUE  SUITE #2,BRONX,NY,10458,BLACK CAR BASE,40.8536206,-73.8874724,12/04/2023,18:00:12,"(40.8536206, -73.8874724)"
B03513,"AMP TRANSPORTATION MANAGEMENT, LLC.",7184001267,No,1303,ALLERTON AVENUE,BRONX,NY,10469,BLACK CAR BASE,40.7101523,-73.7928657,12/04/2023,18:00:12,"(40.7101523, -73.7928657)"
B01479,PRATT CAR SERVICE INC,7187894900,No,175,TOMPKINS AVENUE,BROOKLYN,NY,11206,LIVERY BASE,40.693241,-73.945613,12/04/2023,18:00:12,"(40.693241, -73.945613)"
B00256,FAST OPERATING CORP,2126666666,No,2642,BROADWAY,NY,NY,10025,LIVERY BASE,40.760313,-73.9412,12/04/2023,18:00:12,"(40.760313, -73.9412)"
B03343,"GRACEFUL TRANSPORTATION, INC",3478469258,No,169-30,JAMAICA AVE,JAMAICA,NY,11432,BLACK CAR BASE,40.6841649,-73.8590297,12/04/2023,18:00:12,"(40.6841649, -73.8590297)"
B03550,BROADWAY CAR SERVICE INC,9142993605,No,95,RIVERDALE AVE,YONKERS,NY,10701,BLACK CAR BASE,,,12/04/2023,18:00:12,
B03161,LA MEXICANA EXPRESS 2 INC.,7184373535,No,4611,5 AVENUE,BROOKLYN,NY,11220,BLACK CAR BASE,40.6469831,-74.0080603,12/04/2023,18:00:12,"(40.6469831, -74.0080603)"
B03408,ABR LUXURY TRANSPORTATION CORP.,3472523200,No,3418,NORTHERN BOULEVARD  SUITE 39,L.I.C.,NY,11101,BLACK CAR BASE,40.7517583,-73.929177,12/04/2023,18:00:12,"(40.7517583, -73.929177)"
B02822,MILKY WAY LIMO CORP,7186746277,Yes,75-19,PARSONS BOULEVARD,FRESH MEADOWS,NY,11366,BLACK CAR BASE,40.72595,-73.810672,12/04/2023,18:00:12,"(40.72595, -73.810672)"
B00477,INTA-BORO ACRES INC,7188451705,No,88-19,101 AVENUE,OZONE PARK,NY,11416,BLACK CAR BASE,40.682991,-73.851316,12/04/2023,18:00:12,"(40.682991, -73.851316)"
B03450,SYDNEY LUXURY LIMO INC.,3475242008,No,53,WEST 48TH STREET  B1,BAYONNE,NJ,07002,BLACK CAR BASE,40.6827361,-74.1048931,12/04/2023,18:00:12,"(40.6827361, -74.1048931)"
B02429,SEAGULL RIDE CORP,7187033333,No,2692,CONEY ISLAND AVENUE,BROOKLYN,NY,11235,BLACK CAR BASE,40.59092,-73.961,12/04/2023,18:00:12,"(40.59092, -73.961)"
B01128,PAK-EAGLE INC.,7185751212,Yes,72-55,KISSENA BOULEVARD,FLUSHING,NY,11367,LIVERY BASE,40.727695,-73.8129,12/04/2023,18:00:12,"(40.727695, -73.8129)"
B00411,FONE-A-CAR INC,7186376320,No,41 - 24,38TH STREET,LIC,NY,11101,BLACK CAR BASE,40.638477,-73.98333,12/04/2023,18:00:12,"(40.638477, -73.98333)"
B03131,HYTCH HOLDING LLC,8889948356,No,238,MAIN STREET  SUITE 101,HACKENSACK,NJ,07601,BLACK CAR BASE,40.8856835,-74.0417975,12/04/2023,18:00:12,"(40.8856835, -74.0417975)"
B02819,FIVE STAR LUXURY INC.,7189400044,No,787,CONEY ISLAND AVENUE,BROOKLYN,NY,11218,BLACK CAR BASE,40.638265,-73.96821,12/04/2023,18:00:12,"(40.638265, -73.96821)"
B90731,AGNES TRANSPORTATION LIMITED LIABILITY COMPANY,7184901563,No,119-22,196 STREET,ST.ALBANS,NY,11412,PARATRANSIT BASE,40.6900283,-73.7546203,12/04/2023,18:00:12,"(40.6900283, -73.7546203)"
B01803,"V.I.P. CONNECTION, INC.",7183926100,No,53-38,35 STREET,LIC,NY,11101,BLACK CAR BASE,40.735324,-73.938114,12/04/2023,18:00:12,"(40.735324, -73.938114)"
B02772,"TAP & RIDE,INC.",7184806660,Yes,86-11,LEFFERTS BOULEVARD  SUITE 2A,RICHMOND HILL,NY,11418,BLACK CAR BASE,40.701122,-73.83138,12/04/2023,18:00:12,"(40.701122, -73.83138)"
B02005,CAR LINE TRANSPORTATION CORP.,7187292222,No,43-39,21 STREET  SUITE 203,LIC,NY,11101,BLACK CAR BASE,40.749703,-73.945981,12/04/2023,18:00:12,"(40.749703, -73.945981)"
B03172,ALLIED BLACK CAR SERVICE LLC.,9295947566,No,2825/2823,3RD AVEUNE  6G,BRONX,NY,10455,BLACK CAR BASE,40.8158019,-73.9184149,12/04/2023,18:00:12,"(40.8158019, -73.9184149)"
B02315,LA MORENITA CAR LIMO SERVICE INC,7186150039,No,115,BRIGHTON   11 STREET,BROOKLYN,NY,11235,LIVERY BASE,40.579811,-73.95744,12/04/2023,18:00:12,"(40.579811, -73.95744)"
B00290,ZPI CORPORATION,7185076363,No,112-47,ROOSEVELT AVENUE,CORONA,NY,11368,LIVERY BASE,40.752235,-73.85365,12/04/2023,18:00:12,"(40.752235, -73.85365)"
B03391,TIAZ LIMO CAR SERVICE CORP,3476129203,No,8136,BAXTER AVENUE,ELMHURST,NY,11373,BLACK CAR BASE,40.7459771,-73.8833836,12/04/2023,18:00:12,"(40.7459771, -73.8833836)"
B02727,OSCAR LIMOUSINE INC,8773451683,No,3646,PRAIRIE PATH,BETHPAGE,NY,11714,LUXURY/LIMOUSINE,40.803977,-73.40549,12/04/2023,18:00:12,"(40.803977, -73.40549)"
B01285,UNION RADIO DISPATCH INC,7185830222,No,69,FEATHERBED LANE,BRONX,NY,10452,LIVERY BASE,40.846629,-73.91736,12/04/2023,18:00:12,"(40.846629, -73.91736)"
B80107,FLUSHING VAN SERVICE INC,6463625890,No,136-31,41 AVENUE  7A,FLUSHING,NY,11355,COMMUTER VAN AUTHORITY BASE,40.717173,-73.995852,12/04/2023,18:00:12,"(40.717173, -73.995852)"
B02472,NEW BUSHWICK LUXURY INC.,7188217777,No,180,KNICKERBOCKER AVENUE,BROOKLYN,NY,11237,BLACK CAR BASE,40.703715,-73.927365,12/04/2023,18:00:12,"(40.703715, -73.927365)"
B02292,NEW YORK APPLE V.I.P. CORP,7182304789,No,372,WILSON AVENUE,BROOKLYN,NY,11221,BLACK CAR BASE,40.694835,-73.915817,12/04/2023,18:00:12,"(40.694835, -73.915817)"
B00254,XYZ TWO WAY RADIO,7187687333,No,32,ADELE STREET,STATEN ISLAND,NY,10305,BLACK CAR BASE,40.661323,-73.99142,12/04/2023,18:00:12,"(40.661323, -73.99142)"
B01854,EUROPE LIMOUSINE SERVICE INC,2014773200,No,24,FARVIEW TERRACE,PARAMUS,NJ,07652,LUXURY/LIMOUSINE,40.922042,-74.069773,12/04/2023,18:00:12,"(40.922042, -74.069773)"
B02608,PARADA LUXURY INC.,9176564676,No,125,42 STREET,BROOKLYN,NY,11232,BLACK CAR BASE,40.65464,-74.013585,12/04/2023,18:00:12,"(40.65464, -74.013585)"
B03348,APPLE CITY CAR INC,9174158580,No,8,W 126TH STREET 3RD FLOOR,NEW YORK,NY,10027,BLACK CAR BASE,40.8071578,-73.942526,12/04/2023,18:00:12,"(40.8071578, -73.942526)"
B02418,PLUSH SERVICES CORP,5164183303,No,33 - 20,55 STREET  SUITE #227,WOODSIDE,NY,11377,BLACK CAR BASE,40.704842,-73.651686,12/04/2023,18:00:12,"(40.704842, -73.651686)"
B01389,METRO LUXURY INC,7186654900,No,625,EAST  137 STREET,BRONX,NY,10454,LIVERY BASE,40.805521,-73.9159,12/04/2023,18:00:12,"(40.805521, -73.9159)"
B02509,NY MINUTE CAR SERVICE INC.,7183657777,No,2809,WEBSTER AVENUE,BRONX,NY,10458,LIVERY BASE,40.866717,-73.88502,12/04/2023,18:00:12,"(40.866717, -73.88502)"
B00975,"T.J.Q. CAR SERVICE, INC.",7186292540,No,4912,AVENUE D,BROOKLYN,NY,11203,LIVERY BASE,40.64196,-73.9298,12/04/2023,18:00:12,"(40.64196, -73.9298)"
B02551,CHIEF LIMO INC.,7185051919,No,3708,100 STREET,QUEENS,NY,11368,BLACK CAR BASE,40.738362,-73.895646,12/04/2023,18:00:12,"(40.738362, -73.895646)"
B03557,"SPACELINKS,LLC",6464011042,No,136,MADISON AVENUE  5TH FLOOR,NEW YORK,NY,10016,BLACK CAR BASE,40.7463572,-73.9842907,12/04/2023,18:00:12,"(40.7463572, -73.9842907)"
B02855,JUNIORS LUXURY INC,7189401212,No,1509,CORTELYOU RD,BROOKLYN,NY,11226,BLACK CAR BASE,40.641619,-73.96416,12/04/2023,18:00:12,"(40.641619, -73.96416)"
B02929,OTTOMAN TRANSPORTATION INC.,7185692525,No,61-43,186TH STREET  C112,FRESH MEADOWS,NY,11365,BLACK CAR BASE,40.764356,-73.884555,12/04/2023,18:00:12,"(40.764356, -73.884555)"
B02990,GO MY SEDAN LLC,2124340400,No,700,ROCKWAY TURNPIKE  SUITE # 202,LAWRENCE,NY,11559,BLACK CAR BASE,40.753913,-73.986417,12/04/2023,18:00:12,"(40.753913, -73.986417)"
B03206,KIDMOTO TECHNOLOGIES LLC,3476122091,No,2910,THOMPSON AVE  STE 760,LIC,NY,11101,BLACK CAR BASE,40.7447057,-73.9378899,12/04/2023,18:00:12,"(40.7447057, -73.9378899)"
B03061,BLUE EAGLE TRANSPORTATION SERVICES CORP,7184838388,No,325,SOUNDVIEW AVENUE  FLOOR 1,BRONX,NY,10473,BLACK CAR BASE,40.8120359,-73.8567379,12/04/2023,18:00:12,"(40.8120359, -73.8567379)"
B03250,SALAM CAR SERVICE INC.,5189778916,No,452,EAST TREMONT AVENUE,BRONX,NY,10457,BLACK CAR BASE,40.8468999,-73.8987791,12/04/2023,18:00:12,"(40.8468999, -73.8987791)"
B03383,AR ELITE TRANSPORTATION INC.,9178330291,No,908,EAST GUNHILL ROAD,BRONX,NY,10469,BLACK CAR BASE,40.8751972,-73.8601277,12/04/2023,18:00:12,"(40.8751972, -73.8601277)"
B01273,PUERTO RICO CAR SERVICE INC.,7184437777,No,1072,BROADWAY,BROOKLYN,NY,11221,LIVERY BASE,40.694521,-73.931575,12/04/2023,18:00:12,"(40.694521, -73.931575)"
B02507,SARAH VENTURES INC.,3473030625,No,2823,FREDERICK DOUGLASS BOULEVARD,NEW YORK,NY,10039,BLACK CAR BASE,40.816898,-73.92174,12/04/2023,18:00:12,"(40.816898, -73.92174)"
B02243,BARONAS LUXURY II INC,7184244141,No,1804,RANDALL AVENUE,BRONX,NY,10473,BLACK CAR BASE,40.816803,-73.862557,12/04/2023,18:00:12,"(40.816803, -73.862557)"
B03531,CHARLOTTE LUXURY INC.,3478499724,No,1889,WEBSTER AVENUE  2ND FL,BRONX,NY,10457,BLACK CAR BASE,40.8475095,-73.9012742,12/04/2023,18:00:12,"(40.8475095, -73.9012742)"
B03016,BEST DEAL BLACK INC.,7185155555,No,757 A,BURKE AVENUE,BRONX,NY,10467,BLACK CAR BASE,40.7101523,-73.7928657,12/04/2023,18:00:12,"(40.7101523, -73.7928657)"
B03251,RIDE FHV CORP.,7184158444,No,159,20 STREET  SUITE#1B-3,BROOKLYN,NY,11232,BLACK CAR BASE,40.6637995,-73.9955038,12/04/2023,18:00:12,"(40.6637995, -73.9955038)"
B03412,ALTUS TRANSIT CORP,7183994914,No,548,THROGS NECK EXPRESSWAY  SUIT 4,BRONX,NY,10465,BLACK CAR BASE,40.8257534,-73.8157679,12/04/2023,18:00:12,"(40.8257534, -73.8157679)"
B00095,LIBERTY CAR SERVICE INC.,7183666666,No,689,SENECA AVENUE,RIDGEWOOD,NY,11385,LIVERY BASE,40.70305,-73.907668,12/04/2023,18:00:12,"(40.70305, -73.907668)"
B00653,ROYAL CAR & LIMO SERVICE INC.,7183233333,Yes,104-09,109TH STREET,RICHMOND HILL,NY,11418,LIVERY BASE,40.683813,-73.832688,12/04/2023,18:00:12,"(40.683813, -73.832688)"
B03288,JAROCHO CAR SERVICE CORP.,7184487180,No,374,MANOR ROAD  # 1,STATEN ISLAND,NY,10314,BLACK CAR BASE,40.6261532,-74.130468,12/04/2023,18:00:12,"(40.6261532, -74.130468)"
B00597,WAKEFIELD LSG MAINT CORP,7183258663,No,4632,WHITE PLAINS ROAD  1ST FLOOR,BRONX,NY,10470,LIVERY BASE,40.903259,-73.849586,12/04/2023,18:00:12,"(40.903259, -73.849586)"
B03105,MAZNA TRANSPORTATION CORPORATION,7036398075,No,7923,7TH AVENUE,BROOKLYN,NY,11228,BLACK CAR BASE,40.6229958,-74.0191175,12/04/2023,18:00:12,"(40.6229958, -74.0191175)"
B03284,MYLE WORLDWIDE INC,6468448577,No,878,MCDONALD AVENUE,BROOKLYN,NY,11218,BLACK CAR BASE,40.6325278,-73.9778449,12/04/2023,18:00:12,"(40.6325278, -73.9778449)"
B00429,SURF CAR SYSTEMS INC,7183274444,No,1092,BEACH   22 STREET,FAR ROCKAWAY,NY,11691,LIVERY BASE,40.60493,-73.754284,12/04/2023,18:00:12,"(40.60493, -73.754284)"
B02950,WMC SERVICE INC,5169435140,No,2130,CATON AVENUE,BROOKLYN,NY,11226,BLACK CAR BASE,40.735543,-73.934785,12/04/2023,18:00:12,"(40.735543, -73.934785)"
B03462,IMPERIAL TP CAR SERVICE INC,7189010070,No,49,WEST 170TH STREET,BRONX,NY,10452,BLACK CAR BASE,40.8407671,-73.9204093,12/04/2023,18:00:12,"(40.8407671, -73.9204093)"
B01311,DISCOUNT CAR SVCE,7187400101,No,94-44,213 STREET,QUEENS VILLAGE,NY,11428,LIVERY BASE,40.71643,-73.74506,12/04/2023,18:00:12,"(40.71643, -73.74506)"
B90544,SAFA AMBULETTE LLC,6463580105,No,54,HIGHVIEW ROAD,FISHKILL,NY,12524,PARATRANSIT BASE,40.823432,-73.867924,12/04/2023,18:00:12,"(40.823432, -73.867924)"
B03117,RELY-ON-US CAR SERVICE INC,3472948602,No,250,JACKSON AVENUE,BRONX,NY,10454,BLACK CAR BASE,40.8051087,-73.9123771,12/04/2023,18:00:12,"(40.8051087, -73.9123771)"
B02989,GOOD FRIENDS CAR SERVICE INC,7183218282,No,158-14,NORTHERN BLVD  UNIT#UL-3,FLUSHING,NY,11358,BLACK CAR BASE,40.63186,-73.984917,12/04/2023,18:00:12,"(40.63186, -73.984917)"
B02687,ECO RIDE INC.,7186463500,No,6002,FOSTER AVENUE,BROOKLYN,NY,11236,LIVERY BASE,40.640231,-73.918947,12/04/2023,18:00:12,"(40.640231, -73.918947)"
B00387,FORTUNE LIMOUSINES INC,7185452400,No,20-02,31 STREET,ASTORIA,NY,11105,LUXURY/LIMOUSINE,40.779561,-73.906776,12/04/2023,18:00:12,"(40.779561, -73.906776)"
B02756,ALLY CAR SERVICE LLC,7184357777,No,2939,AVENUE Y,BROOKLYN,NY,11235,LIVERY BASE,40.591996,-73.93961,12/04/2023,18:00:12,"(40.591996, -73.93961)"
B01868,LIMO 4 LLC,2124444444,No,36-31,10TH STREET,LIC,NY,11106,LIVERY BASE,40.760313,-73.9412,12/04/2023,18:00:12,"(40.760313, -73.9412)"
B03116,NAVI TRANSPORTATION INC.,9292996284,No,125,MICHAEL DR.  SUITE 105,SYOSSET,NY,11791,BLACK CAR BASE,40.6949736,-73.7405352,12/04/2023,18:00:12,"(40.6949736, -73.7405352)"
B00381,BELL RADIO INC,7189444955,No,41-24,38 STREET,LIC,NY,11101,BLACK CAR BASE,40.638477,-73.983333,12/04/2023,18:00:12,"(40.638477, -73.983333)"
B02856,MARIACHI CAR SERVICE INC,3474664749,No,1254,CASTLETON AVENUE,STATEN ISLAND,NY,10310,BLACK CAR BASE,40.63375,-74.12479,12/04/2023,18:00:12,"(40.63375, -74.12479)"
B03230,"THE BEST WE CAN TRANSPORTATION, INC.",7188807973,No,509,EAST  163 STREET,BRONX,NY,10451,BLACK CAR BASE,40.8245572,-73.9091714,12/04/2023,18:00:12,"(40.8245572, -73.9091714)"
B80100,CITY LINK CORPORATION,7187237262,No,144-50,177 STREET,SPRINGFD GRND,NY,11434,COMMUTER VAN AUTHORITY BASE,40.666208,-73.772534,12/04/2023,18:00:12,"(40.666208, -73.772534)"
B01124,COOPERATIVA CLBNA DE CON INC,7186990960,No,109-20,CORONA AVENUE,CORONA,NY,11368,LIVERY BASE,40.741837,-73.85361,12/04/2023,18:00:12,"(40.741837, -73.85361)"
B03267,MANGA TRANSPORTATION CORP,3472593779,No,903,SHERIDAN AVE  2ND FLOOR,BRONX,NY,10451,BLACK CAR BASE,40.8270008,-73.9209595,12/04/2023,18:00:12,"(40.8270008, -73.9209595)"
B00536,"WINTHROP HOLDING OF NEW YORK, INC",7182091616,No,5924,GLENWOOD ROAD,BROOKLYN,NY,11234,LIVERY BASE,40.634075,-73.919437,12/04/2023,18:00:12,"(40.634075, -73.919437)"
B03527,ALTO OPERATIONS NEW YORK LLC,8883070174,No,500,7 AVENUE,NEW YORK,NY,10018,BLACK CAR BASE,40.7532821,-73.9895154,12/04/2023,18:00:12,"(40.7532821, -73.9895154)"
B03486,OCCSER LLC,3478750005,No,3918,13 AVENUE,BROOKLYN,NY,11218,BLACK CAR BASE,41.31521,-73.094917,12/04/2023,18:00:12,"(41.31521, -73.094917)"
B02095,"COMMONWEALTH WORLDWIDE CHAUFFEURED TRANSP. OF NY,LLC.",7187065500,No,191,HIGH STREET,WALTHAM,MA,02453,LUXURY/LIMOUSINE,40.739553,-73.936994,12/04/2023,18:00:12,"(40.739553, -73.936994)"
B03415,BRONX FAMILY TRANSPORTATION INC,3475912002,No,169,LINCOLN AVE  SUITE 206,BRONX,NY,10454,BLACK CAR BASE,40.8093689,-73.9287755,12/04/2023,18:00:12,"(40.8093689, -73.9287755)"
B01243,EILAT TRANSPORTATION CORP,7183761122,Yes,1601,VOORHIES AVENUE,BROOKLYN,NY,11235,LIVERY BASE,40.604462,-73.97275,12/04/2023,18:00:12,"(40.604462, -73.97275)"
B02956,W.K.EXPRESS LIMO SERVICE INC,7182747888,No,1206,60 STREET,BROOKLYN,NY,11219,BLACK CAR BASE,40.712007,-73.99515,12/04/2023,18:00:12,"(40.712007, -73.99515)"
B02970,FLYTE LINE TRANSPORTATION LLC,8888885466,No,365,RIFLE CAMP ROAD  SUITE 202,WOODLAND,NJ,07424,BLACK CAR BASE,41.083191,-74.149513,12/04/2023,18:00:12,"(41.083191, -74.149513)"
B03464,SOLEIL CITY TRANSPORTATION INC.,9298220868,No,549,EAST  138 STREET  2ND FLOOR,BRONX,NY,10454,BLACK CAR BASE,40.8071447,-73.9175285,12/04/2023,18:00:12,"(40.8071447, -73.9175285)"
B01985,"LUXURY WORLDWIDE TRANSPORTATION, LLC",7188322600,No,209,25 STREET,BROOKLYN,NY,11232,BLACK CAR BASE,40.654091,-74.006819,12/04/2023,18:00:12,"(40.654091, -74.006819)"
B03309,NYC LIMOUSINE VIP LLC.,9082060311,No,1,MEADOWLAND PLAZA  SUITE #200,E. RUTHERFORD,NJ,07073,BLACK CAR BASE,40.8061916,-74.0776436,12/04/2023,18:00:12,"(40.8061916, -74.0776436)"
B03355,MANA TRANSPORTATION INC.,9173619112,No,912,SOUNDVIEW AVENUE SUITE 7 2ND FL.,BRONX,NY,10473,BLACK CAR BASE,40.8234499,-73.8678681,12/04/2023,18:00:12,"(40.8234499, -73.8678681)"
B00919,HARLEM CARS INC.,2126638080,No,210,ST NICHOLAS AVENUE,NEW YORK,NY,10027,LIVERY BASE,40.807098,-73.952675,12/04/2023,18:00:12,"(40.807098, -73.952675)"
B02111,HUANG HOU CAR SERVICES INC.,7187623333,No,35-27,FARRINGTON STREET,FLUSHING,NY,11354,LIVERY BASE,40.763587,-73.831238,12/04/2023,18:00:12,"(40.763587, -73.831238)"
B03344,C-TRANSIT INC.,3477688360,No,1626,NOSTRAND AVENUE,BROOKLYN,NY,11226,LIVERY BASE,40.6463696,-73.9494069,12/04/2023,18:00:12,"(40.6463696, -73.9494069)"
B03409,COAST TO COAST TRANSFERS LLC,9173052484,No,38-17,CRESCENT STREET,L.I.C.,NY,11101,BLACK CAR BASE,40.7551909,-73.9360027,12/04/2023,18:00:12,"(40.7551909, -73.9360027)"
B02127,"CONTINENTAL RIDE, INC.",8007063495,No,111,WASHINGTON AVENUE,DUMONT,NJ,07628,LUXURY/LIMOUSINE,40.940024,-73.993747,12/04/2023,18:00:12,"(40.940024, -73.993747)"
B90334,TAMAR TRANSP CORP,7183681111,No,601,BRIGHTON BEACH_AVE,BROOKLYN,NY,11235,PARATRANSIT BASE,40.577898,-73.961479,12/04/2023,18:00:12,"(40.577898, -73.961479)"
B03227,NY MERENGUE TRANSPORTATION INC,9292187080,No,135-10,JAMAICA AVENUE,RICHMOND HILL,NY,11418,BLACK CAR BASE,40.7022101,-73.8172631,12/04/2023,18:00:12,"(40.7022101, -73.8172631)"
B02397,CHICO EXPRESS CORP. 2,7182367777,No,6318,14 AVENUE,BROOKLYN,NY,11219,LIVERY BASE,40.625609,-73.99868,12/04/2023,18:00:12,"(40.625609, -73.99868)"
B03499,ABM BLACK CAR SERVICE LLC.,8604949349,No,88,BARBER HILL ROAD,SOUTH WINDSOR,CT,06074,BLACK CAR BASE,41.8528425,-72.5293079,12/04/2023,18:00:12,"(41.8528425, -72.5293079)"
B03352,DREAMS LUXURY SERVICES CORP,6465684600,No,2825,THIRD AVENUE  SUIT 301 D2,BRONX,NY,10455,BLACK CAR BASE,40.8158019,-73.9184149,12/04/2023,18:00:12,"(40.8158019, -73.9184149)"
B01312,BROOKLYN RADIO DISPATCHER INC,7183844444,No,95-11,JAMAICA AVENUE,WOODHAVEN,NY,11421,LIVERY BASE,40.714797,-73.959738,12/04/2023,18:00:12,"(40.714797, -73.959738)"
B03307,LUXE RIDERS CORP,2126557600,No,203,LAKEVIEW AVENUE,LYNBROOK,NY,11563,LUXURY/LIMOUSINE,40.666736,-73.6632756,12/04/2023,18:00:12,"(40.666736, -73.6632756)"
B03296,ZIP CONNECTIONS INC,2018829654,No,139,WALINGTON AVE,WALINGTON,NJ,07057,BLACK CAR BASE,40.3384771,-74.26094,12/04/2023,18:00:12,"(40.3384771, -74.26094)"
B03186,ONE STOP RIDE LLC,7187010033,No,620,CRESENT AVENUE,BRONX,NY,10458,BLACK CAR BASE,40.8535623,-73.8878824,12/04/2023,18:00:12,"(40.8535623, -73.8878824)"
B00008,T-D MAINTENANCE CORP,7184561111,No,127-01,METROPOLITAN AVENUE,KEW GARDENS,NY,11415,LIVERY BASE,40.70681,-73.87768,12/04/2023,18:00:12,"(40.70681, -73.87768)"
B03444,ASSURE CAR & LIMO INC.,9294330433,No,214-85,JAMAICA AVENUE,JAMAICA,NY,11428,BLACK CAR BASE,40.7172982,-73.7410516,12/04/2023,18:00:12,"(40.7172982, -73.7410516)"
B02975,LI YANG LIMOUSINE INC,9293379394,No,578,58 STREET,BROOKLYN,NY,11220,BLACK CAR BASE,40.639423,-74.013137,12/04/2023,18:00:12,"(40.639423, -74.013137)"
B03525,CARE WITH LOVE TRANSPORTATION CORP.,9293052391,No,217,MOUNTAINDALE ROAD,YONKERS,NY,10710,BLACK CAR BASE,40.9615338,-73.8473149,12/04/2023,18:00:12,"(40.9615338, -73.8473149)"
B03297,ABA LUXURY CAR INC.,7187556639,No,45-35,39TH STREET,SUNNYSIDE,NY,11104,LUXURY/LIMOUSINE,40.7495524,-73.9177114,12/04/2023,18:00:12,"(40.7495524, -73.9177114)"
B03299,WHITE TOP CAR SVCE INC,7187746661,No,1111,ST JOHNS PLACE,BROOKLYN,NY,11213,BLACK CAR BASE,40.6712938,-73.9412512,12/04/2023,18:00:12,"(40.6712938, -73.9412512)"
B03106,NORTENA CAR & LIMO INC,7188569400,No,507,CONEY ISLAND AVENUE,BROOKLYN,NY,11218,BLACK CAR BASE,40.6454618,-73.9703878,12/04/2023,18:00:12,"(40.6454618, -73.9703878)"
B03159,A1 ACCESSIBLE TRANSPORTATION LLC,2124960177,No,57,WEST   57 STREET  4TH FLOOR,NEW YORK,NY,10019,BLACK CAR BASE,40.7644701,-73.9766911,12/04/2023,18:00:12,"(40.7644701, -73.9766911)"
B03489,ACTION CAR SERVICE INC,7187478820,No,105,FREDERICK PLACE,MOUNT VERNON,NY,10552,BLACK CAR BASE,40.9233656,-73.8251089,12/04/2023,18:00:12,"(40.9233656, -73.8251089)"
B03505,LA ECUATORIANA LUXURY INC,7183006040,No,2402,86 STREET,BROOKLYN,NY,11214,BLACK CAR BASE,40.5988071,-73.989239,12/04/2023,18:00:12,"(40.5988071, -73.989239)"
B90703,"UNIVERSAL AMBULETTE SERVICES, INC.",7188504989,No,239-06,87 AVENUE  2ND FL,BELLEROSE,NY,11426,PARATRANSIT BASE,40.730869,-73.726908,12/04/2023,18:00:12,"(40.730869, -73.726908)"
B03291,TRACY LUXURY CORP.,7183139400,No,4861,BROADWAY,NEW YORK,NY,10034,BLACK CAR BASE,40.8668822,-73.9240982,12/04/2023,18:00:12,"(40.8668822, -73.9240982)"
B03254,TEMPO TRANSPORTATION CORP.,9174421822,No,34-18,NORTHERN BOULEVARD,LIC,NY,11101,BLACK CAR BASE,40.7517583,-73.929177,12/04/2023,18:00:12,"(40.7517583, -73.929177)"
B02902,NY CAR & LIMO SERVICES INC.,7182551798,Yes,71-16,35 AVENUE,JACKSON HEIGHTS,NY,11372,BLACK CAR BASE,40.750655,-73.894345,12/04/2023,18:00:12,"(40.750655, -73.894345)"
B02787,SEMPERIDE LLC,7183509591,No,85,BROAD STREET  27TH FLOOR,NEW YORK,NY,10004,BLACK CAR BASE,40.7042,-74.00824,12/04/2023,18:00:12,"(40.7042, -74.00824)"
B03239,CIBAO 2 INC.,7184782288,No,112 - 44,ROOSEVELT AVENUE,CORONA,NY,11368,BLACK CAR BASE,40.7522386,-73.852757,12/04/2023,18:00:12,"(40.7522386, -73.852757)"
B03494,NYC WHEELS CAR SERVICE INC.,3472253700,No,1656,EAST 15TH STREET,BROOKLYN,NY,11229,BLACK CAR BASE,40.6089032,-73.9584378,12/04/2023,18:00:12,"(40.6089032, -73.9584378)"
B02228,SPECIAL RADIO DISP.CORP.,2126663939,No,72,WEST  109 STREET,NEW YORK,NY,10025,LIVERY BASE,40.800928,-73.961258,12/04/2023,18:00:12,"(40.800928, -73.961258)"
B03085,A & A AMAZOON TRANSPORTATION INC.,7184954444,No,107-04,37 AVENUE,CORONA,NY,11368,BLACK CAR BASE,40.7536992,-73.8612854,12/04/2023,18:00:12,"(40.7536992, -73.8612854)"
B02661,MIC-LOU CAR SERVICES_LLC,7187204444,No,2,TOMPKINS AVE,STATEN ISLAND,NY,10304,LIVERY BASE,40.615388,-74.08496,12/04/2023,18:00:12,"(40.615388, -74.08496)"
B01083,BROAD DYCKMAN C/S INC,2123048080,No,203,DYCKMAN STREET,NEW YORK,NY,10040,LIVERY BASE,40.864833,-73.92718,12/04/2023,18:00:12,"(40.864833, -73.92718)"
B03324,PORT RICHMOND BLACK CAR INC.,3478587131,No,103,PORT RICHMOND AVENUE,STATEN ISLAND,NY,10302,BLACK CAR BASE,40.6383995,-74.1327609,12/04/2023,18:00:12,"(40.6383995, -74.1327609)"
B03514,CHAUFFEUR ON DEMAND CORP.,5168400011,No,1225,FRANKLIN AVE  #325,GARDEN CITY,NY,11530,LUXURY/LIMOUSINE,40.7340743,-73.6354595,12/04/2023,18:00:12,"(40.7340743, -73.6354595)"
B03506,"KLS WORLDWIDE CHAUFFERURED SERVICES, INC.",8003815301,No,271,U.S.46 WEST  SUITE 204,FAIRFIELD,NJ,07004,LUXURY/LIMOUSINE,42.1710098,-76.8533365,12/04/2023,18:00:12,"(42.1710098, -76.8533365)"
B02739,TRAXLINE CAR SERVICE INC.,7187894901,No,7,MARCUS GARVEY BLVD  STE 212,BROOKLYN,NY,11206,BLACK CAR BASE,40.693704,-73.962047,12/04/2023,18:00:12,"(40.693704, -73.962047)"
B01625,GLOBE CAR SERVICE INC,7188473500,No,112-06,101 AVENUE,RICHMOND HILL,NY,11419,LIVERY BASE,40.68813,-73.831491,12/04/2023,18:00:12,"(40.68813, -73.831491)"
B00235,"ARISTACAR & LIMOUSINE, LTD.",7186433900,No,241,37 STREET  STE#1-4-B443,BROOKLYN,NY,11232,BLACK CAR BASE,40.678782,-73.989979,12/04/2023,18:00:12,"(40.678782, -73.989979)"
B90736,"REEKAV TRANSPORTATION, LLC",3475950552,No,107-41,WATSON PLACE,JAMAICA,NY,11433,PARATRANSIT BASE,40.7017392,-73.7804846,12/04/2023,18:00:12,"(40.7017392, -73.7804846)"
B01332,SKYWAY CAR SERVICE EXPRESS INC.,7183585858,Yes,68-20A,FRESH MEADOW LANE,QUEENS,NY,11365,LIVERY BASE,40.733337,-73.794706,12/04/2023,18:00:12,"(40.733337, -73.794706)"
B02800,FLATIRON TRANSIT LLC,6467599889,No,114,5TH AVENUE  FLOOR 17,NEW YORK,NY,10011,BLACK CAR BASE,40.74393,-73.98819,12/04/2023,18:00:12,"(40.74393, -73.98819)"
B03145,YERZ CAR INC.,7185048383,No,1018,CASTLE HILL AVENUE  OFFICE#2,BRONX,NY,10472,BLACK CAR BASE,40.8280872,-73.8498818,12/04/2023,18:00:12,"(40.8280872, -73.8498818)"
B01779,APEX CAR & LIMO SVCE INC,7185221313,No,579,SMITH STREET,BROOKLYN,NY,11231,BLACK CAR BASE,40.672025,-73.999451,12/04/2023,18:00:12,"(40.672025, -73.999451)"
B03246,FASTRIDE LIMO INC.,3472716510,No,2121,DAVIDSON AVENUE,BRONX,NY,10453,BLACK CAR BASE,40.8559162,-73.9068401,12/04/2023,18:00:12,"(40.8559162, -73.9068401)"
B02534,DV LUXURY TRANSPORTATION CORPORATION,7186198970,No,1313,PROSPECT AVENUE,BRONX,NY,10459,BLACK CAR BASE,40.828071,-73.898435,12/04/2023,18:00:12,"(40.828071, -73.898435)"
B03497,PRINCETON LIMO SERVICE CORPORATION,6462707013,No,66,BREARLY CT,PRINCETON,NJ,08540,LUXURY/LIMOUSINE,40.3871274,-74.6601696,12/04/2023,18:00:12,"(40.3871274, -74.6601696)"
B02613,NYC STAR LIMOUSINE & CAR SERVICES CORP.,7182777777,No,3440,ATLANTIC AVENUE,BROOKLYN,NY,11208,LIVERY BASE,40.679483,-73.886635,12/04/2023,18:00:12,"(40.679483, -73.886635)"
B03164,KISS LUXURY TRANSPORTATION INC.,7183670303,No,2811,WHITE PLAINS RD,BRONX,NY,10467,BLACK CAR BASE,40.8668432,-73.8675043,12/04/2023,18:00:12,"(40.8668432, -73.8675043)"
B02182,"FINEST CAR SERVICE, LLC",7186436466,Yes,335,BOND STREET,BROOKLYN,NY,11231,LIVERY BASE,40.678782,-73.98998,12/04/2023,18:00:12,"(40.678782, -73.98998)"
B02465,7 STAR CAR & LIMOUSINE INC.,7187076166,No,43-23,35 STREET,LONG ISLAND CIT,NY,11101,LIVERY BASE,40.745471,-73.92933,12/04/2023,18:00:12,"(40.745471, -73.92933)"
B00112,"AYY&M TRANSPORTATION, LLC",7186802500,No,9425,5 AVENUE,BROOKLYN,NY,11209,LIVERY BASE,40.615867,-74.030649,12/04/2023,18:00:12,"(40.615867, -74.030649)"
B02881,DIANE CAR AND LIMO SERVICE LLC,7185444444,No,71-19,80TH STREET  SUITE# 8310,GLENDALE,NY,11385,BLACK CAR BASE,40.717248,-73.857586,12/04/2023,18:00:12,"(40.717248, -73.857586)"
B02853,SAFE RIDES CAR & LIMO SERVICES INC,3479832800,No,5488,AMBOY ROAD  SUITE 3,STATEN ISLAND,NY,10312,BLACK CAR BASE,40.511457,-74.241468,12/04/2023,18:00:12,"(40.511457, -74.241468)"
B03380,ELECTRIC PEPPERS LLC,6316297678,No,273,SOUTH 5TH STREET  SUITE 301,BROOKLYN,NY,11211,BLACK CAR BASE,40.7093824,-73.9578508,12/04/2023,18:00:12,"(40.7093824, -73.9578508)"
B00272,BIG APPLE CAR INC,7182368765,No,169,BAY   17 STREET,BROOKLYN,NY,11214,BLACK CAR BASE,40.604428,-74.006622,12/04/2023,18:00:12,"(40.604428, -74.006622)"
B00906,OLYMPIA OPERATING CAR SERVICE OF NY CORP.,7186268000,No,23 - 90,23 STREET,ASTORIA,NY,11105,LIVERY BASE,40.775146,-73.91981,12/04/2023,18:00:12,"(40.775146, -73.91981)"
B03360,RIDE4NYC CORP.,7185409001,No,54 - 14,74 STREET  SUITE #3306,ELMHURST,NY,11373,BLACK CAR BASE,40.7296956,-73.8876929,12/04/2023,18:00:12,"(40.7296956, -73.8876929)"
B02391,"BAYRIDGE EXPRESS, INC",7186807000,No,377,BAYRIDGE AVENUE,BROOKLYN,NY,11220,LIVERY BASE,40.634907,-74.023845,12/04/2023,18:00:12,"(40.634907, -74.023845)"
B01963,AFRO CAR SERVICE CORP,7183424200,No,73,HEGEMAN AVENUE,BROOKLYN,NY,11212,LIVERY BASE,40.65609,-73.90948,12/04/2023,18:00:12,"(40.65609, -73.90948)"
B90058,AHAVA ACCESS INC,7182521111,No,6002,FOSTER AVENUE,BROOKLYN,NY,11236,PARATRANSIT BASE,40.640231,-73.918947,12/04/2023,18:00:12,"(40.640231, -73.918947)"
B90662,MAYOOR TRANSPORTATION INC.,9142354700,No,498,MAIN STREET  SUITE 4,NEW ROCHELLE,NY,10801,PARATRANSIT BASE,40.908868,-73.781264,12/04/2023,18:00:12,"(40.908868, -73.781264)"
B01351,HADERECH CAR SERVICE INC,7185696929,No,876,MC DONALD AVENUE,BROOKLYN,NY,11218,LIVERY BASE,40.629082,-73.98057,12/04/2023,18:00:12,"(40.629082, -73.98057)"
B00556,SURREY CADILLAC LIMO SVC INC,2123551727,No,439,EAST 77TH STREET,NEW YORK,NY,10075,LUXURY/LIMOUSINE,40.770569,-73.95198,12/04/2023,18:00:12,"(40.770569, -73.95198)"
B00639,ROCAPULCO CAR SERVICE INC.,7184747100,No,239,BEACH  116 STREET,ROCKAWAY PARK,NY,11694,LIVERY BASE,40.580524,-73.837823,12/04/2023,18:00:12,"(40.580524, -73.837823)"
B00208,ERNEST SCHWARZ INC,8778114846,No,15,CHAIN LANE,HICKSVILLE,NY,11801,LUXURY/LIMOUSINE,40.745993,-73.515605,12/04/2023,18:00:12,"(40.745993, -73.515605)"
B02152,"KYOEI LIMOUSINE, INC.",2129490868,No,57-48,MASPETH AVENUE,MASPETH,NY,11378,LUXURY/LIMOUSINE,40.722961,-73.91031,12/04/2023,18:00:12,"(40.722961, -73.91031)"
B03210,DUNAMIS CARE CAR SERVICE CORP.,7189922222,No,388,EAST  169 STREET,BRONX,NY,10456,BLACK CAR BASE,40.8341439,-73.9099009,12/04/2023,18:00:12,"(40.8341439, -73.9099009)"
B00647,KISS CAR SERVICE INC,7187331111,Yes,2811,WHITE PLAINS RD,BRONX,NY,10467,LIVERY BASE,40.865895,-73.88565,12/04/2023,18:00:12,"(40.865895, -73.88565)"
B03542,SANTANARIDE LLC,8774329712,No,73,MARKET STREET  3RD FL VO1,YONKERS,NY,10701,BLACK CAR BASE,,,12/04/2023,18:00:12,
B03418,RIDE IN STYLE LIMO INC.,9294000719,No,83,ANCHOR LANE,LEVITTOWN,NY,11756,BLACK CAR BASE,40.7116925,-73.5099533,12/04/2023,18:00:12,"(40.7116925, -73.5099533)"
